{"city":"Hyderabad","hospitals":[{"latitude":17.4406857,"longitude":78.3916647,"name":"Vikram Hospitals"},{"latitude":17.4444337,"longitude":78.3860746,"name":"Image Hospitals"},{"latitude":17.4417142,"longitude":78.4478775,"name":"Ameerpet Government Hospital"},{"latitude":17.4422795,"longitude":78.4480341,"name":"Sri Vijaya Hospitals"},{"latitude":17.4415414,"longitude":78.4461255,"name":"Sree Priya Multi Speciality Hospital"},{"latitude":17.3672265,"longitude":78.4859878,"name":"Rahmat Ali hospital"},{"latitude":17.407574,"longitude":78.512174,"name":"Satya Hospital"},{"latitude":17.4293162,"longitude":78.533452,"name":"Innova Children's Heart Hospital"},{"latitude":17.4290954,"longitude":78.5333362,"name":"Apollo Clinic"},{"latitude":17.40681,"longitude":78.4645023,"name":"Vasavi ENT Hospital"},{"latitude":17.4036641,"longitude":78.4570626,"name":"Mahavir Hospital and Research Centre"},{"latitude":17.3985586,"longitude":78.4814113,"name":"Old Apollo Hospital"},{"latitude":17.4021334,"longitude":78.4625295,"name":"Krishna Children's Hospital"},{"latitude":17.4301742,"longitude":78.3937323,"name":"Arogyasree Health care trust"},{"latitude":17.3990359,"longitude":78.4447966,"name":"Surojini Devi Eye Hospital"},{"latitude":17.4156911,"longitude":78.4454609,"name":"Star Hospital"},{"latitude":17.4148145,"longitude":78.4475692,"name":"Rainbow Hospitals"},{"latitude":17.3921498,"longitude":78.4793651,"name":"Fernandez Hospital"},{"latitude":17.4556983,"longitude":78.4984034,"name":"Oxygen Hospital"},{"latitude":17.4693193,"longitude":78.4778376,"name":"Unknown"},{"latitude":17.4636217,"longitude":78.4567398,"name":"Remedy Hospitals"},{"latitude":17.4629614,"longitude":78.3673949,"name":"LEAF HOSPITAL"},{"latitude":17.4535178,"longitude":78.364084,"name":"Ambicare Hospital"},{"latitude":17.4512881,"longitude":78.5354859,"name":"L.K. Diagnostic"},{"latitude":17.4513853,"longitude":78.5352525,"name":"L.K. Hospitals"},{"latitude":17.451435,"longitude":78.5311968,"name":"Dental Hospital"},{"latitude":17.3688309,"longitude":78.5301893,"name":"Lakshmi Childrens Hospital"},{"latitude":17.3993955,"longitude":78.4792005,"name":"Apollo Emergency Hospital"},{"latitude":17.3684777,"longitude":78.5387483,"name":"Omni Hospital"},{"latitude":17.4696017,"longitude":78.3660584,"name":"haritha hospitals"},{"latitude":17.4206569,"longitude":78.4481619,"name":"Care Clinic"},{"latitude":17.4856038,"longitude":78.3903262,"name":"Anupama Hospital"},{"latitude":17.4217792,"longitude":78.4602059,"name":"Anu Test Tube Centre"},{"latitude":17.4064283,"longitude":78.4738814,"name":"Hope Children's Hospital"},{"latitude":17.4291646,"longitude":78.4567382,"name":"Swapna Health Care"},{"latitude":17.3594287,"longitude":78.5450683,"name":"OZONE HOSPITALS"},{"latitude":17.4211366,"longitude":78.4566557,"name":"Asian Institute of Gastroenterology"},{"latitude":17.4068493,"longitude":78.3922011,"name":"Matpathy Clinic"},{"latitude":17.4981077,"longitude":78.3912822,"name":"Unknown"},{"latitude":17.3746556,"longitude":78.4998723,"name":"Yashoda Super Speciality Hospital"},{"latitude":17.4255371,"longitude":78.5306786,"name":"Tarnaka Flyover;APSRTC Hospital"},{"latitude":17.4184365,"longitude":78.457264,"name":"Nova ENT Hospital"},{"latitude":17.4888555,"longitude":78.3959947,"name":"Mamata Nursing Home"},{"latitude":17.4036074,"longitude":78.4753627,"name":"Kirloskar Hospital"},{"latitude":17.4089088,"longitude":78.4894972,"name":"ramesh eye care"},{"latitude":17.4118751,"longitude":78.4888572,"name":"Tapadia Medical Centre's Eashwar Lakshmi Hospital"},{"latitude":17.4073058,"longitude":78.4816234,"name":"K Prakash Rao (eye specialist)"},{"latitude":17.40696,"longitude":78.4821099,"name":"Radha Rani Nursing Home"},{"latitude":17.4103854,"longitude":78.4852768,"name":"Dental Care"},{"latitude":17.4511937,"longitude":78.4208721,"name":"Sri Bhargavi Hospital"},{"latitude":17.4510973,"longitude":78.4224934,"name":"Jaiswal Multi Speciality Hospitals"},{"latitude":17.4480669,"longitude":78.4337319,"name":"Government Ayurvedic Hospital"},{"latitude":17.4388238,"longitude":78.4420946,"name":"Raghava Multi Speciality Hospital"},{"latitude":17.4385124,"longitude":78.4425646,"name":"VCARE Hospitals"},{"latitude":17.4390074,"longitude":78.4406383,"name":"Deepthi Diagnostics"},{"latitude":17.345698,"longitude":78.549763,"name":"Healthcare Hospitals"},{"latitude":17.3348812,"longitude":78.5372101,"name":"Unknown"},{"latitude":17.4976626,"longitude":78.3901045,"name":"Cygnus Institute of Gastroenterology Centre"},{"latitude":17.3526774,"longitude":78.5542584,"name":"hospital"},{"latitude":17.3940456,"longitude":78.5104248,"name":"Unknown"},{"latitude":17.5113399,"longitude":78.4469461,"name":"Carewell Diabetes and General Hospital"},{"latitude":17.5220823,"longitude":78.4431753,"name":"Sigma Hospitals"},{"latitude":17.44165,"longitude":78.5218514,"name":"Meena Hospital"},{"latitude":17.751304,"longitude":78.2519345,"name":"KAMINANI"},{"latitude":17.9310598,"longitude":78.081265,"name":"balaji"},{"latitude":17.9218545,"longitude":78.1387215,"name":"balaji"},{"latitude":17.4289946,"longitude":78.5120703,"name":"Life Spring Hospitals"},{"latitude":17.5923472,"longitude":78.0838243,"name":"sangeetha"},{"latitude":17.5439866,"longitude":78.4333819,"name":"Malla Reddy Narayana Multispeciality Hospital"},{"latitude":17.4160221,"longitude":78.3916108,"name":"Saraswathi Nursing Home"},{"latitude":17.4631717,"longitude":78.4904751,"name":"Janapareddy Hospital"},{"latitude":17.4599321,"longitude":78.3660837,"name":"Apoolo Clinic"},{"latitude":17.516119,"longitude":78.4388993,"name":"Childrens Hospital"},{"latitude":17.6224594,"longitude":78.1270547,"name":"MNR Medical College and Hospital"},{"latitude":17.398766,"longitude":78.448595,"name":"ayurvedic clinic"},{"latitude":17.3985187,"longitude":78.4458137,"name":"The crescent hospital"},{"latitude":17.4395483,"longitude":78.5048737,"name":"Apollo Hospital"},{"latitude":17.4377225,"longitude":78.521976,"name":"Unknown"},{"latitude":17.3983822,"longitude":78.4161649,"name":"RELIEF HOSPITAL"},{"latitude":17.4115391,"longitude":78.4904614,"name":"Jagadamba Hospitals"},{"latitude":17.4045834,"longitude":78.4893402,"name":"med plus"},{"latitude":17.4072675,"longitude":78.4442572,"name":"Century hospital"},{"latitude":17.4249205,"longitude":78.4139937,"name":"Blood Bank"},{"latitude":17.4044822,"longitude":78.4893121,"name":"Med plus"},{"latitude":17.4072495,"longitude":78.4447338,"name":"CENTURY SUPER SPECIALITY HOSPITAL"},{"latitude":17.4009037,"longitude":78.4875706,"name":"Vasan Healthcare Private Limited, Himayath Nagar"},{"latitude":17.4269993,"longitude":78.4488484,"name":"Unknown"},{"latitude":17.4166539,"longitude":78.4534763,"name":"Asian Institute of Nephrology and Urology"},{"latitude":17.4396192,"longitude":78.450794,"name":"Challa Hospital"},{"latitude":17.3451071,"longitude":78.5537805,"name":"Shresta Orange Hospitals"},{"latitude":17.3412305,"longitude":78.5581563,"name":"AMMA EYE CARE HOSPITAL"},{"latitude":17.3416722,"longitude":78.5576405,"name":"OXYGEN AND Medicity Hospital"},{"latitude":17.4444782,"longitude":78.469498,"name":"Pace Hospital"},{"latitude":17.3418162,"longitude":78.5588085,"name":"Rainbow children Hospital"},{"latitude":17.4955259,"longitude":78.332226,"name":"Vasan Eye Care Hospital"},{"latitude":17.466147,"longitude":78.3677443,"name":"KIMS HOSPITAL"},{"latitude":17.4928587,"longitude":78.327984,"name":"Happy Children's Hospital"},{"latitude":17.4921861,"longitude":78.3275773,"name":"Vanaja Hospital"},{"latitude":17.4899292,"longitude":78.601832,"name":"SUDHA Hospital"},{"latitude":17.3289104,"longitude":78.563899,"name":"Area Hospital, Vanasthalipuram"},{"latitude":17.4439091,"longitude":78.5043433,"name":"Pushpagiri Eye Institute"},{"latitude":17.4959755,"longitude":78.337417,"name":"Archana Hospital"},{"latitude":17.3448605,"longitude":78.4599543,"name":"Health Care Clinic"},{"latitude":17.4153976,"longitude":78.4979892,"name":"Guru Nanak Care Hospital"},{"latitude":17.4297764,"longitude":78.4340161,"name":"Tanvir Hospital"},{"latitude":17.4422328,"longitude":78.3587144,"name":"Himagiri Hospital"},{"latitude":17.4027495,"longitude":78.5826543,"name":"Spark Hospitals"},{"latitude":17.405751,"longitude":78.5871698,"name":"Surya Hospital, Hyderabad"},{"latitude":17.5087613,"longitude":78.300147,"name":"PANACEA MERIDIAN HOSPITAL"},{"latitude":17.498762,"longitude":78.384027,"name":"S.V. Pooja Hospital"},{"latitude":17.4080743,"longitude":78.5988119,"name":"APEX HOSPITAL"},{"latitude":17.4227862,"longitude":78.5165968,"name":"Sri Devi Maternity & Nursing Home"},{"latitude":17.3136981,"longitude":78.5087313,"name":"OM Sai Hospital"},{"latitude":17.3506727,"longitude":78.5078608,"name":"Sri Srinivasa Hospital"},{"latitude":17.3497123,"longitude":78.4707124,"name":"Sitara medical center"},{"latitude":17.446158,"longitude":78.5383502,"name":"Anukrushna Hospitals"},{"latitude":17.4943337,"longitude":78.3448275,"name":"Raja Hospital"},{"latitude":17.3140538,"longitude":78.4045957,"name":"NIRD heatlth centre"},{"latitude":17.5454734,"longitude":78.4326051,"name":"Malla Reddy Health City (MRHC)"},{"latitude":17.4564341,"longitude":78.4388653,"name":"Neelima - Sanath Nagar"},{"latitude":17.456281,"longitude":78.4369269,"name":"Poojitha Hospital"},{"latitude":17.536328,"longitude":78.4885233,"name":"Surekha Hospital"},{"latitude":17.4571109,"longitude":78.5465732,"name":"RAJUS DENTAL"},{"latitude":17.4379741,"longitude":78.4563758,"name":"VINN Hospital"},{"latitude":17.3948133,"longitude":78.4525058,"name":"Mahatma Sriramachandra Centenary Memorial Hospital"},{"latitude":17.3972385,"longitude":78.4562128,"name":"Nice Hospital"},{"latitude":17.4257981,"longitude":78.4207625,"name":"Red Cross Nature Cure Centre"},{"latitude":17.4057018,"longitude":78.4508868,"name":"Goodwill Kidney and Surgical Centre"},{"latitude":17.3946344,"longitude":78.4519084,"name":"Rohan Hospital"},{"latitude":17.3979621,"longitude":78.4543414,"name":"Primary Veternary Hospital"},{"latitude":17.4858906,"longitude":78.3875314,"name":"Sriven Hospital"},{"latitude":17.494517,"longitude":78.39876,"name":"Vijaya Diagnostic Centre"},{"latitude":17.4817165,"longitude":78.5951467,"name":"Vijaya Hospital"},{"latitude":17.4949239,"longitude":78.3969527,"name":"Medical Store"},{"latitude":17.4729982,"longitude":78.3872074,"name":"Ankura Hospital for Women & Children"},{"latitude":17.4731914,"longitude":78.3872633,"name":"Ankura Multispeciality clinic"},{"latitude":17.491694,"longitude":78.3958249,"name":"Aurobindo Nethralaya"},{"latitude":17.4103873,"longitude":78.4844653,"name":"Sri Krishna"},{"latitude":17.328667,"longitude":78.599351,"name":"Krishnaveni Hospitals"},{"latitude":17.3709786,"longitude":78.5425682,"name":"sri sai womens hospital"},{"latitude":17.3703144,"longitude":78.5276104,"name":"Siva Eye Hospital"},{"latitude":17.3682666,"longitude":78.5135597,"name":"Unknown"},{"latitude":17.4248083,"longitude":78.4225617,"name":"Centre For Sight Superspecialty Eye Hospital"},{"latitude":17.3455423,"longitude":78.5226305,"name":"Vasan Eye Care Hospital"},{"latitude":17.4238105,"longitude":78.449832,"name":"Pragna Hospital"},{"latitude":17.4232839,"longitude":78.4505488,"name":"Swarup Eye Centre"},{"latitude":17.3969132,"longitude":78.4722613,"name":"Udai Omni Hospital"},{"latitude":17.4911264,"longitude":78.4010815,"name":"Udbhava Children's Hospital"},{"latitude":17.4553191,"longitude":78.5008281,"name":"Rainbow Hospital for Women and Children, Secunderabad"},{"latitude":17.3913878,"longitude":78.4369875,"name":"Apoorva Hospital"},{"latitude":17.3503945,"longitude":78.5105337,"name":"Ankith Multi Speciality Hospital"},{"latitude":17.4077141,"longitude":78.4781628,"name":"Lions Club of Hyderabad Sadhuram Eye Hospital"},{"latitude":17.4033637,"longitude":78.4172847,"name":"Al-Noor Hospital"},{"latitude":17.4041136,"longitude":78.4611649,"name":"Lotus Children's Hospital, Lakdikapul"},{"latitude":17.4760702,"longitude":78.5640143,"name":"Aruna Hospital"},{"latitude":17.4912927,"longitude":78.3969096,"name":"Preeti Urology and Kidney Hospital"},{"latitude":17.4444929,"longitude":78.4662196,"name":"Vasan Healthcare Private Limited"},{"latitude":17.458369,"longitude":78.5378788,"name":"ADR Hospital"},{"latitude":17.3920174,"longitude":78.4961598,"name":"Bristlecone Hospital"},{"latitude":17.5007182,"longitude":78.3825836,"name":"Abhaya Multi Speciality Hospital"},{"latitude":17.3854315,"longitude":78.4747114,"name":"Care Hospital, Nampally"},{"latitude":17.3851141,"longitude":78.4754102,"name":"Aarogya Hospital"},{"latitude":17.3918945,"longitude":78.4378043,"name":"Arvind Eye Hospital"},{"latitude":17.3525175,"longitude":78.5551161,"name":"Disha Children's Hospital"},{"latitude":17.4311263,"longitude":78.4266108,"name":"Anvitha Hospital"},{"latitude":17.4878467,"longitude":78.5647274,"name":"New Life Line Multi Specialty Hospital"},{"latitude":17.4432007,"longitude":78.4796964,"name":"Homeocare International"},{"latitude":17.5123618,"longitude":78.4754596,"name":"Konark Hospitals"},{"latitude":17.3676358,"longitude":78.5404511,"name":"Sree Netralaya Eye Hospital and Laser Centre"},{"latitude":17.4252477,"longitude":78.4537243,"name":"Leads Medical Centre"},{"latitude":17.4966133,"longitude":78.3398798,"name":"Pranaam Hospitals"},{"latitude":17.4925267,"longitude":78.39749,"name":"Vignesh Nursing Home"},{"latitude":17.344919,"longitude":78.5087555,"name":"Sridhar Multi Speciality Hospital"},{"latitude":17.447062,"longitude":78.5082445,"name":"Geetha Multi Speciality Hospital"},{"latitude":17.3987452,"longitude":78.5069785,"name":"Amar Maternity Nursing Home"},{"latitude":17.3942929,"longitude":78.4419228,"name":"Sai Preethi Life Line Hospital"},{"latitude":17.4920608,"longitude":78.4015616,"name":"Prasad Hospital"},{"latitude":17.4372474,"longitude":78.3942747,"name":"Praanadah Hospital"},{"latitude":17.4691656,"longitude":78.4773293,"name":"Dristi Netralaya Hospital"},{"latitude":17.391947,"longitude":78.4969578,"name":"Geeta Clinic And Maternity Home"},{"latitude":17.4064439,"longitude":78.464393,"name":"Vasavi Hospital"},{"latitude":17.4876454,"longitude":78.4000755,"name":"Sankhya Hospital"},{"latitude":17.3452764,"longitude":78.5282483,"name":"Kiran Hospital"},{"latitude":17.3644409,"longitude":78.4731994,"name":"Smt. Bhagwan Devi Hospital"},{"latitude":17.4593374,"longitude":78.5004204,"name":"Nest Children's Hospital"},{"latitude":17.4918932,"longitude":78.3972265,"name":"V.M.R Hospital"},{"latitude":17.4396489,"longitude":78.4991692,"name":"Mamata Fertility Hospital"},{"latitude":17.3729437,"longitude":78.4673019,"name":"Kishorechand Chordia Eye Centre"},{"latitude":17.4073263,"longitude":78.492862,"name":"Praja Sai Hospital"},{"latitude":17.5160805,"longitude":78.4476453,"name":"Ram Hospital"},{"latitude":17.4738034,"longitude":78.5692647,"name":"Soorya Orthopaedic Hospital"},{"latitude":17.429802,"longitude":78.4487075,"name":"Smiline Dental Hospital"},{"latitude":17.494399,"longitude":78.4020397,"name":"Sushma Nursing Home"},{"latitude":17.3534936,"longitude":78.5068591,"name":"Ratna Maternity and Nursing Home"},{"latitude":17.3942993,"longitude":78.5079373,"name":"Kishan Rao Hospital"},{"latitude":17.4769771,"longitude":78.5627764,"name":"Thatha Hospital"},{"latitude":17.4142,"longitude":78.5021076,"name":"Sudarshan Hospital"},{"latitude":17.4841162,"longitude":78.4488925,"name":"Kid Care Children's Hospital"},{"latitude":17.4956729,"longitude":78.3250616,"name":"Vijaya Nursing Home"},{"latitude":17.4077787,"longitude":78.4975089,"name":"Dangoria Maternity and Nursing Home"},{"latitude":17.4390949,"longitude":78.4406662,"name":"Sainath Hospital"},{"latitude":17.3908042,"longitude":78.4965339,"name":"C.C. Shroff Memorial Hospital"},{"latitude":17.3717457,"longitude":78.5005935,"name":"Hyderabad Kidney And Laparoscopic Centre"},{"latitude":17.4406252,"longitude":78.4242403,"name":"Sadanand Nursing Home"},{"latitude":17.4500557,"longitude":78.5115261,"name":"Tanvi Eye Center"},{"latitude":17.3755381,"longitude":78.4190255,"name":"Kosaraju Hospitals Private Ltd."},{"latitude":17.5160364,"longitude":78.4472698,"name":"Dr. Laxman's Children Hospital"},{"latitude":17.4240881,"longitude":78.4317076,"name":"Maternal Health and Research Trust"},{"latitude":17.4837017,"longitude":78.5373142,"name":"Meda Hospital Pvt. Ltd"},{"latitude":17.3944196,"longitude":78.4626817,"name":"Nisha Hospital"},{"latitude":17.4017218,"longitude":78.5756557,"name":"Aditya Hospital, Uppal"},{"latitude":17.3403283,"longitude":78.5495599,"name":"Medicare Hospital"},{"latitude":17.4956454,"longitude":78.355892,"name":"Sri Shankara Nethralaya"},{"latitude":17.4298167,"longitude":78.4506487,"name":"Dr.Agarwal's Eye Hospital"},{"latitude":17.3818518,"longitude":78.4727287,"name":"Goshamahal Hospital"},{"latitude":17.3313005,"longitude":78.4879965,"name":"Niyar Nursing Home"},{"latitude":17.3925332,"longitude":78.4957641,"name":"Shalini Hospitals"},{"latitude":17.3598544,"longitude":78.504485,"name":"Vivek Hospital"},{"latitude":17.4073909,"longitude":78.4559655,"name":"Vijay Marie Hospital"},{"latitude":17.4409578,"longitude":78.5020941,"name":"Madhava Nursing Home"},{"latitude":17.3763924,"longitude":78.4676445,"name":"Deepa Hospital"},{"latitude":17.4767414,"longitude":78.4798486,"name":"Vinciti Hospital"},{"latitude":17.4932209,"longitude":78.327158,"name":"Sandhya Nursing Home"},{"latitude":17.3915772,"longitude":78.4268716,"name":"Premier Hospital"},{"latitude":17.4226373,"longitude":78.4951296,"name":"Vasundhara Nursing Home"},{"latitude":17.4391256,"longitude":78.3958378,"name":"L.V. Prasad Eye Institute"},{"latitude":17.3979236,"longitude":78.4175335,"name":"Shamshad Children's Hospital"},{"latitude":17.4059206,"longitude":78.4606527,"name":"Curewell Hospital"},{"latitude":17.4350761,"longitude":78.5028817,"name":"Saluja Hospital"},{"latitude":17.4525697,"longitude":78.4444669,"name":"Vijaya Krishna Nursing Home"},{"latitude":17.376004,"longitude":78.4190007,"name":"Vasu Hospital"},{"latitude":17.370373,"longitude":78.487161,"name":"Jaferia Hospital"},{"latitude":17.4595888,"longitude":78.4780213,"name":"Cure Hospitals"},{"latitude":17.3503388,"longitude":78.4916899,"name":"Sravani Hospital"},{"latitude":17.3652026,"longitude":78.3969207,"name":"Sun City Nursing Home"},{"latitude":17.4810002,"longitude":78.5334009,"name":"Rishab Eye Centre"},{"latitude":17.4570199,"longitude":78.4784049,"name":"Raghavendra Orthopaedic and Diagnostic Centre"},{"latitude":17.4940242,"longitude":78.3985448,"name":"Micro Care Ent Hospital and Research Institute"},{"latitude":17.4255423,"longitude":78.5340929,"name":"Anand Vitreo Retina Institute Pvt Ltd"},{"latitude":17.4775643,"longitude":78.5529341,"name":"Vanaja Hospitals"},{"latitude":17.4028902,"longitude":78.5828997,"name":"Ankura Hospital, Boduppal"},{"latitude":17.4812995,"longitude":78.5563056,"name":"Geetanjali Test Tube Baby Centre"},{"latitude":17.367312,"longitude":78.4826575,"name":"Princess Durru Shehvar Children's And General Hospital"},{"latitude":17.3760514,"longitude":78.5569091,"name":"SRI LAXMI MULTI SPECIALITY HOSPITAL, LAPROSCOPIC AND RESEARCH CENTRE"},{"latitude":17.376873,"longitude":78.490338,"name":"Thumbay Hospital New Life"},{"latitude":17.4343967,"longitude":78.4173229,"name":"Srivision Super Speciality Eye Hospital"},{"latitude":17.3974654,"longitude":78.5366464,"name":"Anantha Lakshmi Kidney and Multi Specialty Hospital"},{"latitude":17.4352974,"longitude":78.4365799,"name":"Susheela Hospital"},{"latitude":17.394618,"longitude":78.4386519,"name":"Jaya Bhushan Hospitals Pvt. Ltd"},{"latitude":17.4216154,"longitude":78.4556772,"name":"Asian E.N.T. Care Centre"},{"latitude":17.3913379,"longitude":78.4348029,"name":"Ayodhya Nursing Home"},{"latitude":17.3178961,"longitude":78.4453909,"name":"Sree Raghavendra Hospital"},{"latitude":17.4502892,"longitude":78.5099416,"name":"NephroPlus Dialysis Centre"},{"latitude":17.345958,"longitude":78.5399126,"name":"Aware gleneagles Global Hospital;Aware Gleneagles Global Hospital's Blood Bank"},{"latitude":17.4941988,"longitude":78.3240189,"name":"Sai Siva Children\u2019s Hospital"},{"latitude":17.4232391,"longitude":78.5163756,"name":"Sri Tirumala Maternity and Nursing Home"},{"latitude":17.3292521,"longitude":78.4787576,"name":"Marvel Maternity and Nursing Home"},{"latitude":17.4034853,"longitude":78.4924355,"name":"Akira Eye Surgical Annexe"},{"latitude":17.4939308,"longitude":78.3267166,"name":"Kadimi Nursing Home"},{"latitude":17.4850586,"longitude":78.4471166,"name":"Jayasai Hospital For Women"},{"latitude":17.4957541,"longitude":78.3410724,"name":"Ragi Hospital"},{"latitude":17.3682886,"longitude":78.5220303,"name":"SRESHTA SRI KAMALA HOSPITALS"},{"latitude":17.4825166,"longitude":78.5510686,"name":"Bhavan's Sarada Devi Hospital"},{"latitude":17.4549634,"longitude":78.5087728,"name":"Sree Maruthi Nursing Home"},{"latitude":17.4019445,"longitude":78.4776311,"name":"Sulochana Eye Centre"},{"latitude":17.4565491,"longitude":78.5014417,"name":"Parvathi Multispeciality Hospital"},{"latitude":17.3751644,"longitude":78.4898807,"name":"Muslim Maternity and Children's Hospital"},{"latitude":17.3695416,"longitude":78.5213698,"name":"Shashi Hospital"},{"latitude":17.5028854,"longitude":78.5132843,"name":"Sundari Maternity and General Hospital"},{"latitude":17.3771559,"longitude":78.557005,"name":"Bhavya Hospital"},{"latitude":17.437122,"longitude":78.4272954,"name":"Fehmi Care Hospital"},{"latitude":17.4751261,"longitude":78.5394748,"name":"Sriya Hospital"},{"latitude":17.5044701,"longitude":78.3564663,"name":"Mirra Multi Specialty Hospital"},{"latitude":17.4951472,"longitude":78.5130295,"name":"Jayaprada Hospital"},{"latitude":17.421726,"longitude":78.5041333,"name":"Pulse Hospitals"},{"latitude":17.4467703,"longitude":78.4504817,"name":"S.V. Hospital"},{"latitude":17.3973433,"longitude":78.5603427,"name":"Krishna Multi Speciality Hospital"},{"latitude":17.4354676,"longitude":78.4514661,"name":"Sri Sai Kidney Centre"},{"latitude":17.3930464,"longitude":78.4890948,"name":"Sunrise Superspeciality Children's Hospital"},{"latitude":17.4747705,"longitude":78.5678552,"name":"Raghavendra Hospital"},{"latitude":17.4418419,"longitude":78.4452461,"name":"GSN Hospital"},{"latitude":17.4281872,"longitude":78.432519,"name":"Challa Eye Care Centre"},{"latitude":17.4121475,"longitude":78.4569848,"name":"Royal Hospital For Dentistry and Facial Surgery"},{"latitude":17.4002374,"longitude":78.5405061,"name":"Matrix Hospital"},{"latitude":17.4571396,"longitude":78.5631077,"name":"M S Reddy Lions Eye Hospital"},{"latitude":17.4229122,"longitude":78.452197,"name":"Santhigiri Auyrveda and Siddha Hospital"},{"latitude":17.397102,"longitude":78.5319123,"name":"Shree Jaya Krishna Hospital"},{"latitude":17.4091262,"longitude":78.459209,"name":"Allwin Hospital"},{"latitude":17.4186198,"longitude":78.4524223,"name":"Sai Institute Of Arthroscopy And Sports Injury"},{"latitude":17.5185239,"longitude":78.4822022,"name":"Sree Balaji Hospital"},{"latitude":17.401288,"longitude":78.5648384,"name":"Sathya Hospital"},{"latitude":17.4554163,"longitude":78.4238099,"name":"Leela Hospital"},{"latitude":17.3879656,"longitude":78.4397234,"name":"Anusha Hospital"},{"latitude":17.4954209,"longitude":78.3226825,"name":"RR Orthopedic Hospital"},{"latitude":17.4059203,"longitude":78.4793389,"name":"Partha Dental Clinic"},{"latitude":17.373217,"longitude":78.5032857,"name":"Susrutha Hospital"},{"latitude":17.390579,"longitude":78.4911588,"name":"Venkatesh Borgaonker Nursing Home"},{"latitude":17.520925,"longitude":78.484531,"name":"Harsha Hospitals"},{"latitude":17.3979338,"longitude":78.492064,"name":"Sri Sai Srinivasa Speciality Hospitals Pvt. Ltd"},{"latitude":17.389948,"longitude":78.4959277,"name":"Sai Krishna Neuro Hospital"},{"latitude":17.4156652,"longitude":78.4988473,"name":"Sagar Lal Memorial Hospital and Matadin Goel Research Center"},{"latitude":17.4274156,"longitude":78.4607056,"name":"Matrika Hospital"},{"latitude":17.4111077,"longitude":78.482968,"name":"Dr. Mohan's Diabetes Specialities Centre"},{"latitude":17.404143,"longitude":78.4622929,"name":"Seha Hospital"},{"latitude":17.4281006,"longitude":78.5170508,"name":"Krishna Maternity And Nursing Home"},{"latitude":17.3646867,"longitude":78.5441633,"name":"Sri Srinivasa Nursing Home"},{"latitude":17.4912076,"longitude":78.4011693,"name":"Global Eye Hospital"},{"latitude":17.531698,"longitude":78.2650553,"name":"People's Hospital"},{"latitude":17.417401,"longitude":78.4577723,"name":"Kerala Sanjeevani Ayurvedic Centre"},{"latitude":17.410791,"longitude":78.5434699,"name":"Rajagiri Hospitals"},{"latitude":17.4364471,"longitude":78.4961886,"name":"Aravind Nursing Home"},{"latitude":17.49926,"longitude":78.5129283,"name":"G.N.R. Multispeciality Hospital"},{"latitude":17.3937202,"longitude":78.5095339,"name":"Ramana Maternity Nursing Home"},{"latitude":17.4932836,"longitude":78.4017017,"name":"Surakshaka Multi Speciality Hospital"},{"latitude":17.3926842,"longitude":78.4455183,"name":"Aries Maternity Hospital"},{"latitude":17.5141839,"longitude":78.4470136,"name":"Ragani Children's Hospital"},{"latitude":17.4047804,"longitude":78.4821191,"name":"Sathya Kidney Centre and Super Speciality Hospital"},{"latitude":17.4593055,"longitude":78.4785913,"name":"Chandana Hospitals"},{"latitude":17.4711657,"longitude":78.5050875,"name":"Pratibha Maternity Home"},{"latitude":17.4312043,"longitude":78.4553486,"name":"Vivekananda Hospital"},{"latitude":17.4936289,"longitude":78.4000562,"name":"Ravi Hospital"},{"latitude":17.3512003,"longitude":78.5094488,"name":"Nightingale Hospital"},{"latitude":17.4078913,"longitude":78.4426578,"name":"Eva Care The Every Woman's Clinic"},{"latitude":17.4173069,"longitude":78.5412021,"name":"Habsiguda Poly Clinic and Nursing Home"},{"latitude":17.3962241,"longitude":78.4889916,"name":"Unity Centre For Orthopaedics And Trauma"},{"latitude":17.493721,"longitude":78.3983745,"name":"Merit Care Hospital"},{"latitude":17.4458107,"longitude":78.504999,"name":"SECUNDERABAD NURSING HOME"},{"latitude":17.3974917,"longitude":78.5339528,"name":"Ramantapur Hospital"},{"latitude":17.3608928,"longitude":78.5432218,"name":"Sai Sanjeevini Hospital"},{"latitude":17.4953109,"longitude":78.415377,"name":"Harsha Hospitals"},{"latitude":17.4097327,"longitude":78.5084336,"name":"Sowmya Hospital"},{"latitude":17.3655046,"longitude":78.4620085,"name":"Meds Hospital"},{"latitude":17.494784,"longitude":78.3404388,"name":"Sarada Nursing Home"},{"latitude":17.4404883,"longitude":78.4978656,"name":"Vasan Healthcare Private Limited, Secunderabad"},{"latitude":17.4936174,"longitude":78.5127834,"name":"Devi Maternity Home"},{"latitude":17.4405861,"longitude":78.4503195,"name":"Vatsalya Institute Of Pediatrics Hospital"},{"latitude":17.484821,"longitude":78.3881754,"name":"Sandeep Nursing Home"},{"latitude":17.4260772,"longitude":78.457375,"name":"Maa Ent Institute"},{"latitude":17.496063,"longitude":78.4541865,"name":"Sanjeevani Children and General Hospital"},{"latitude":17.3995642,"longitude":78.4843923,"name":"Hyderabad Eye Centre"},{"latitude":17.4466174,"longitude":78.5360288,"name":"Santoshi Maternity Hospital"},{"latitude":17.4954561,"longitude":78.3208955,"name":"Vishnu Hospital"},{"latitude":17.3393852,"longitude":78.5572883,"name":"Sai Sharan Hospital"},{"latitude":17.39863,"longitude":78.4849159,"name":"Clear Vision Eye Hospital"},{"latitude":17.3601882,"longitude":78.5047261,"name":"Sai Nursing Home"},{"latitude":17.4171112,"longitude":78.5440868,"name":"Neo Vision Eye Care and Laser Center"},{"latitude":17.4301078,"longitude":78.4061931,"name":"Stopiles"},{"latitude":17.40665,"longitude":78.4759131,"name":"Centre For Sight - New Vision Laser Centers"},{"latitude":17.459459,"longitude":78.5576695,"name":"Life Spring Maternity Hospital"},{"latitude":17.3863466,"longitude":78.4942286,"name":"Sri Rama Krishna Hospital"},{"latitude":17.4825173,"longitude":78.5374282,"name":"Universal Superspeciality Dental Hospital"},{"latitude":17.379978,"longitude":78.421019,"name":"Majestic Hospital"},{"latitude":17.3446309,"longitude":78.5546158,"name":"Aruna Hospital"},{"latitude":17.4917263,"longitude":78.3970112,"name":"Eswar Eye Hospital"},{"latitude":17.4804514,"longitude":78.5561165,"name":"Dr. A S Rao Nagar Nursing Home"},{"latitude":17.3913737,"longitude":78.4757126,"name":"Dr.Shantabai Nursing Home"},{"latitude":17.4376427,"longitude":78.4524706,"name":"Apollo Spectra Hospitals"},{"latitude":17.4348983,"longitude":78.5429897,"name":"Manjary Multispeciality Hospital"},{"latitude":17.4465502,"longitude":78.5133715,"name":"Taraporewalla Nursing Home"},{"latitude":17.4478066,"longitude":78.508915,"name":"Shenoy Nursing Home"},{"latitude":17.4947378,"longitude":78.3225725,"name":"Kiran Swetha Children Clinic"},{"latitude":17.3737769,"longitude":78.4958902,"name":"Dr. Zaibunnisa's Imtiyaz Hospital"},{"latitude":17.3586618,"longitude":78.4780816,"name":"Alpha Super Speciality Hospital"},{"latitude":17.4982349,"longitude":78.3144481,"name":"Mythri Multi Speciality Hospital"},{"latitude":17.3692242,"longitude":78.5189867,"name":"Vasan Healthcare"},{"latitude":17.4416577,"longitude":78.4908745,"name":"BSR ENT & Eye Nursing Home"},{"latitude":17.4440464,"longitude":78.3847817,"name":"Srija Maternity and Nursing Home"},{"latitude":17.4097647,"longitude":78.5441056,"name":"Siris Hospital"},{"latitude":17.4938323,"longitude":78.5398865,"name":"Srinivasa Hospital"},{"latitude":17.4373484,"longitude":78.4462573,"name":"ASTER PRIME HOSPITALS (SRI SAINATHA MULTISPECIALITY HOSPITAL PVT.LTD.)"},{"latitude":17.3937938,"longitude":78.5302003,"name":"Janani Hospital"},{"latitude":17.4292454,"longitude":78.4531264,"name":"Amrutha Diabetic Centre"},{"latitude":17.3648685,"longitude":78.4626402,"name":"Azam Hospital"},{"latitude":17.3688485,"longitude":78.5343739,"name":"Oarchid Hospital"},{"latitude":17.3446513,"longitude":78.5167946,"name":"Sri Venkateswara Multi Speciality Hospital"},{"latitude":17.43595,"longitude":78.5425988,"name":"Sri Santosh Hospital"},{"latitude":17.3910723,"longitude":78.4267851,"name":"Dr. Sreedhar's Kidney & Infertility Hospital"},{"latitude":17.3621837,"longitude":78.4826327,"name":"G.M.C. Multi Speciality Dental Hospital"},{"latitude":17.3682105,"longitude":78.5203962,"name":"Nikhil Hospital"},{"latitude":17.4052775,"longitude":78.476577,"name":"Dr. Saxena Integrative Medicine Private Ltd."},{"latitude":17.48489,"longitude":78.4096652,"name":"Prerana Hospital"},{"latitude":17.4381142,"longitude":78.5049681,"name":"Shubhodaya Nursing Home"},{"latitude":17.4620995,"longitude":78.5006364,"name":"Shekars Ent Hospital"},{"latitude":17.4779001,"longitude":78.5626893,"name":"Shreyas Hospital"},{"latitude":17.3836628,"longitude":78.4292413,"name":"Mythri Hospital"},{"latitude":17.394801,"longitude":78.4990337,"name":"Rukkus Dental Hospital & Implant Center"},{"latitude":17.3942462,"longitude":78.4989743,"name":"Hyderabad Eye Hospital"},{"latitude":17.4946701,"longitude":78.3268218,"name":"Sai Anurag Hosptial"},{"latitude":17.4606974,"longitude":78.4904668,"name":"Bloom Hospitals - Unit of Janapareddy Hospitals."},{"latitude":17.3709739,"longitude":78.5147515,"name":"Hedge Maternity and Nursing Home"},{"latitude":17.4517957,"longitude":78.4377721,"name":"St.Theresa's Hospitals"},{"latitude":17.3502416,"longitude":78.5121296,"name":"Sunita Children's Hospital"},{"latitude":17.3935545,"longitude":78.4435281,"name":"Dr. Akbar Eye Hospital"},{"latitude":17.3988488,"longitude":78.4479502,"name":"Medi Vision Eye Care Centre"},{"latitude":17.4490629,"longitude":78.4317237,"name":"Sunrich Hospital"},{"latitude":17.3674854,"longitude":78.5358477,"name":"Induss Hospitals"},{"latitude":17.4448064,"longitude":78.4324291,"name":"J.J. Hospital"},{"latitude":17.4660729,"longitude":78.4832785,"name":"Lifespring Hospital"},{"latitude":17.4820222,"longitude":78.5525036,"name":"Ankura Children's Hospital"},{"latitude":17.4713934,"longitude":78.4849957,"name":"SKM Multi Speciality Hospital"},{"latitude":17.3763547,"longitude":78.4203096,"name":"Ambaa Hospitals"},{"latitude":17.5119189,"longitude":78.4465805,"name":"S.V.K. Hospital Private Ltd."},{"latitude":17.393511,"longitude":78.4568185,"name":"Mansoor Maternity And Childrens Hospital"},{"latitude":17.4727007,"longitude":78.5713568,"name":"Xenia Multi Speciality Hospital"},{"latitude":17.4116829,"longitude":78.4324009,"name":"Avis Ankura Hospital for Women & Children"},{"latitude":17.4002489,"longitude":78.5665409,"name":"Ammaji Childrens Hospital"},{"latitude":17.4748831,"longitude":78.5709384,"name":"Tulasi Hospitals"},{"latitude":17.3920533,"longitude":78.4961564,"name":"Ashok Kumar Hospital"},{"latitude":17.4075461,"longitude":78.4496157,"name":"Banjara 12 Hospital"},{"latitude":17.4943913,"longitude":78.3232471,"name":"Anitha Nursing Home"},{"latitude":17.3453352,"longitude":78.5492826,"name":"Health Care Hospitals"},{"latitude":17.3946084,"longitude":78.5304907,"name":"Sri Krishna Swathi Children's Hospital"},{"latitude":17.4514829,"longitude":78.424402,"name":"Manas Eye Hospital"},{"latitude":17.467585,"longitude":78.4819903,"name":"Pavithra Hospital"},{"latitude":17.4997851,"longitude":78.3841534,"name":"Rainbow Childrens Hospital"},{"latitude":17.398678,"longitude":78.5136256,"name":"Shantilal Navodaya Multi Speciality Hospital"},{"latitude":17.3941335,"longitude":78.5099286,"name":"Tilaknagar ABHAYA-BBC HOSPITAL"},{"latitude":17.4920026,"longitude":78.4093373,"name":"Sumana Hospital"},{"latitude":17.4407735,"longitude":78.4492117,"name":"Bhavika Nursing Home"},{"latitude":17.4853224,"longitude":78.3899282,"name":"Icon Hospital"},{"latitude":17.4251451,"longitude":78.4510457,"name":"Sree Srinivasa ENT Care and Research Institute"},{"latitude":17.494147,"longitude":78.4053522,"name":"Kavya Nursing Home"},{"latitude":17.4575848,"longitude":78.4523016,"name":"Peoples Health Centre"},{"latitude":17.4004716,"longitude":78.5666549,"name":"Shiva Sai Hospital"},{"latitude":17.4947648,"longitude":78.3600202,"name":"Shilpa Nursing Home"},{"latitude":17.3978302,"longitude":78.4842937,"name":"Dr. P. Siva Reddy Eye Hospital"},{"latitude":17.3702559,"longitude":78.5005438,"name":"KIMS BIBI Hospital"},{"latitude":17.3727325,"longitude":78.509658,"name":"K.G.H The Family Hospital"},{"latitude":17.4305671,"longitude":78.4503329,"name":"Dr.Rao's ENT Super Speciality Hospital"},{"latitude":17.3710405,"longitude":78.5008154,"name":"Pushpa Maternity and Nursing Home"},{"latitude":17.4759595,"longitude":78.4837787,"name":"Ramya Nursing Home"},{"latitude":17.3452876,"longitude":78.4567943,"name":"Care Well Hospital"},{"latitude":17.3398185,"longitude":78.5575941,"name":"Raksha Multi Speciality Hospital"},{"latitude":17.3967872,"longitude":78.4728447,"name":"Neo Retina Eye Care"},{"latitude":17.3724317,"longitude":78.5077295,"name":"Spark Eye Care Hospital"},{"latitude":17.3719492,"longitude":78.5358806,"name":"Ganga Orthopaedic and Maternity Hospital"},{"latitude":17.4948223,"longitude":78.4016588,"name":"Varsha Hospital"},{"latitude":17.4776666,"longitude":78.5630205,"name":"Vasan Eye Care"},{"latitude":17.4858827,"longitude":78.3890216,"name":"Sagar Hospital"},{"latitude":17.3689017,"longitude":78.5168678,"name":"Midas ENT Head and Neck Super Speciality Hospital"},{"latitude":17.45035,"longitude":78.5034782,"name":"Lions Patny Hospital"},{"latitude":17.4299337,"longitude":78.4271117,"name":"Seethal Nursing Home"},{"latitude":17.3837869,"longitude":78.4367287,"name":"Dharani Hospital"},{"latitude":17.3982154,"longitude":78.4843661,"name":"Desai Nursing Home"},{"latitude":17.503255,"longitude":78.5095681,"name":"Prashamsha Hospital"},{"latitude":17.4030515,"longitude":78.5100617,"name":"NEO BBC Childrens Hospital"},{"latitude":17.4591328,"longitude":78.5007772,"name":"Soumya Multispeciality Hospital"},{"latitude":17.3900901,"longitude":78.5314,"name":"Sri Gayatri Hospital"},{"latitude":17.3855301,"longitude":78.4801885,"name":"FMS Dental Hospital"},{"latitude":17.4261322,"longitude":78.5324286,"name":"Suraksha Childrens Hospital"},{"latitude":17.4811326,"longitude":78.5541297,"name":"Prema Eye Care Centre"},{"latitude":17.4486471,"longitude":78.4849052,"name":"J S Mahaveer Hospital"},{"latitude":17.4422795,"longitude":78.5043204,"name":"The Dental Venue Multi Speciality Hospital (unit of Dr.Gowd\u2019s)"},{"latitude":17.4915108,"longitude":78.4013115,"name":"Padmaavathi Netralaya"},{"latitude":17.4004729,"longitude":78.4914961,"name":"Mahesh Hospital And Research Foundation"},{"latitude":17.3403386,"longitude":78.5072333,"name":"Deccan College Of Medical Sciences"},{"latitude":17.3991381,"longitude":78.483151,"name":"CDR Hospitals"},{"latitude":17.3758914,"longitude":78.4971612,"name":"Moosi Maternity and Genernal Hospital"},{"latitude":17.3676268,"longitude":78.5508728,"name":"Hyma Children's Hospital"},{"latitude":17.4306004,"longitude":78.4388973,"name":"Shree Hospital"},{"latitude":17.4466871,"longitude":78.5027158,"name":"Sai Jyothi Eye Institute"},{"latitude":17.4270433,"longitude":78.450353,"name":"Little Star Children's Hospital (A Unit Of Thirumala Child Health Services Pvt. Ltd)"},{"latitude":17.4505451,"longitude":78.5032415,"name":"Basant Sahney Hospitals"},{"latitude":17.5218368,"longitude":78.4831209,"name":"RR Hospital"},{"latitude":17.345084,"longitude":78.5288881,"name":"Krishna Sai Multispeciality Hospital"},{"latitude":17.3995348,"longitude":78.4630345,"name":"Lazarus Hospitals"},{"latitude":17.447338,"longitude":78.437815,"name":"Sowmya Hospital"},{"latitude":17.4900948,"longitude":78.4481992,"name":"Pulse Hospital"},{"latitude":17.3662637,"longitude":78.473135,"name":"Gupta Hospital"},{"latitude":17.3497321,"longitude":78.5151807,"name":"Maruthi Hospital"},{"latitude":17.3512682,"longitude":78.5092865,"name":"Himabindu Multi Speciality Hospital"},{"latitude":17.4961817,"longitude":78.4055095,"name":"Tadla Eye Hospital"},{"latitude":17.3854802,"longitude":78.4752171,"name":"Kailash Diagnostic and Rehabilitation Center"},{"latitude":17.4504779,"longitude":78.5062201,"name":"Lions Dundoo Eye Institute"},{"latitude":17.4314653,"longitude":78.4466797,"name":"Image Hospital"},{"latitude":17.4016591,"longitude":78.3848655,"name":"Sri Balaji Hospital"},{"latitude":17.4002182,"longitude":78.4840006,"name":"Lakshmi Maternity and Nursing Home"},{"latitude":17.4183783,"longitude":78.5835349,"name":"RBM Multi-Speciality Hospital"},{"latitude":17.4090144,"longitude":78.5864131,"name":"AVI Clinic"},{"latitude":17.4322118,"longitude":78.4490681,"name":"Disneys Medi-Kid Hospitals Pvt. Ltd"},{"latitude":17.4174357,"longitude":78.5118319,"name":"Akshaya Care Multi Speciality Hospital"},{"latitude":17.4150148,"longitude":78.5452451,"name":"Dr.Padmaja Fertility Centre and Nursing Home"},{"latitude":17.3473217,"longitude":78.5195889,"name":"Focus Hospital"},{"latitude":17.5130968,"longitude":78.5541491,"name":"Meenakshi Mother and Child Hospital"},{"latitude":17.4553171,"longitude":78.1321558,"name":"SRC Hospital"},{"latitude":17.370156,"longitude":78.5320289,"name":"Geeta Multispeciality Hospital"},{"latitude":17.3210258,"longitude":78.5201099,"name":"SV Multispeciality Hospital"},{"latitude":17.3320827,"longitude":78.5732733,"name":"Lakshmi Health Care Hospital"},{"latitude":17.3617057,"longitude":78.5620603,"name":"Sri Sai Balaji Hospital"},{"latitude":17.4227606,"longitude":78.5469769,"name":"Bapuji Maternity and Nursing Home"},{"latitude":17.3700395,"longitude":78.5278568,"name":"Abinav Orthopedic Hospital"},{"latitude":17.3623277,"longitude":78.4685625,"name":"Ganga Nursing Home"},{"latitude":17.4951345,"longitude":78.4024782,"name":"Sujatha Nursing Home"},{"latitude":17.5420919,"longitude":78.4335503,"name":"Suguna Sree Nursing Home"},{"latitude":17.3891213,"longitude":78.4928083,"name":"SVS Hospitals"},{"latitude":17.3836896,"longitude":78.4897466,"name":"Vishwa Medi Care and Diagnostic Centre"},{"latitude":17.4524815,"longitude":78.5685701,"name":"Dhanunjaya Nursing Home"},{"latitude":17.4383029,"longitude":78.3994983,"name":"Live Life Hospital"},{"latitude":17.3903338,"longitude":78.4514802,"name":"Healing Touch Hospital"},{"latitude":17.5019044,"longitude":78.5405564,"name":"Jain Multi Speciality Hospital"},{"latitude":17.4458529,"longitude":78.4663644,"name":"Maxivision Eye Hospital"},{"latitude":17.4273708,"longitude":78.5517687,"name":"Chandamama Hospital"},{"latitude":17.4293887,"longitude":78.4178258,"name":"Avis Hospitals"},{"latitude":17.3208562,"longitude":78.5613281,"name":"Jaya Hospital"},{"latitude":17.331248,"longitude":78.5882561,"name":"Bhagyalatha Hospital"},{"latitude":17.3309842,"longitude":78.5780563,"name":"Anusha Maternity and Nursing Home"},{"latitude":17.369612,"longitude":78.5302386,"name":"Lakshmi Children's Hospital"},{"latitude":17.3692696,"longitude":78.5346776,"name":"G.B.R. Hospital"},{"latitude":17.3369064,"longitude":78.5699487,"name":"Sri Mahalaxmi Eye Hospital"},{"latitude":17.3362996,"longitude":78.5692929,"name":"Chaithanya Multi Speciality Hospital"},{"latitude":17.5046076,"longitude":78.3088705,"name":"Sri Pallavi Hospital"},{"latitude":17.3495087,"longitude":78.5128967,"name":"Sri Rohini Hospital"},{"latitude":17.3696005,"longitude":78.5292421,"name":"Manju Sudha Multispeciality Hospital"},{"latitude":17.3295126,"longitude":78.5261227,"name":"Aruna Hospital"},{"latitude":17.3444401,"longitude":78.529845,"name":"Sai Venkateshwara Hospital"},{"latitude":17.3693752,"longitude":78.5209313,"name":"TKR's IKON Hospital"},{"latitude":17.3665529,"longitude":78.535367,"name":"Sri JRD Hospital"},{"latitude":17.5022005,"longitude":78.3129877,"name":"Sidhartha Nursing Home"},{"latitude":17.3716433,"longitude":78.5340057,"name":"Raghava Hospital"},{"latitude":17.3681674,"longitude":78.5267378,"name":"Harsha Neuro and General Hospital"},{"latitude":17.347104,"longitude":78.5213564,"name":"Padmaja Hospital"},{"latitude":17.3689234,"longitude":78.5299851,"name":"Anurag Orthopedic and Multispecial Hospital"},{"latitude":17.3334758,"longitude":78.531298,"name":"Krishna Hospital"},{"latitude":17.3358644,"longitude":78.5747552,"name":"Rajya Lakshmi Hospital"},{"latitude":17.36803,"longitude":78.5206215,"name":"Sigma Hospitals"},{"latitude":17.2064934,"longitude":78.4762739,"name":"Lakshmi Hospital"},{"latitude":17.3286133,"longitude":78.5685231,"name":"Sri Ramadevi Orthopaedic Hospital"},{"latitude":17.3694424,"longitude":78.5314201,"name":"Goodlife Hospitals"},{"latitude":17.4455011,"longitude":78.5678539,"name":"Aashritha Hospital"},{"latitude":17.4707013,"longitude":78.3109143,"name":"American Oncology Institute"},{"latitude":17.4707742,"longitude":78.3113113,"name":"Citizens Specialty Hospital"},{"latitude":17.8424987,"longitude":78.6896543,"name":"Eshwara Sai Nursing Home"},{"latitude":17.5057043,"longitude":78.3072115,"name":"Maruthi Hospital"},{"latitude":17.36424,"longitude":78.4275663,"name":"Usha Mohan Hospital"},{"latitude":17.5868473,"longitude":78.0934918,"name":"Shree Balaji Multispeciality Hospitals"},{"latitude":17.588724,"longitude":78.0829212,"name":"Sri Sai Raghavendra Multi Speciality Hospital"},{"latitude":17.2599543,"longitude":78.3840267,"name":"Trident Hospital"},{"latitude":17.6070976,"longitude":78.0836239,"name":"Gokul Venkateshwara Multi Speciality Hospital"},{"latitude":17.3389598,"longitude":78.5226278,"name":"Sri Sai Orthopaedic and Multi Speciality Hospital"},{"latitude":17.6063971,"longitude":78.0842368,"name":"Jyothi Mother And Child Hospital"},{"latitude":17.3697132,"longitude":78.5319766,"name":"Swapna Hospital Private Limited"},{"latitude":17.4840637,"longitude":78.4487262,"name":"Ankura Kodali Hospital"},{"latitude":17.7429644,"longitude":78.2826358,"name":"Madhavi Nursing Home"},{"latitude":17.2738453,"longitude":78.5391707,"name":"Sri Raghavendra Hospital"},{"latitude":17.3597254,"longitude":78.5448767,"name":"Paramitha Children's Hospital"},{"latitude":17.344506,"longitude":78.5296565,"name":"Padmavathi Hospital"},{"latitude":17.3740649,"longitude":78.5409902,"name":"Sai Nikith Speciality Hospital And Laproscopic Centre"},{"latitude":17.6101789,"longitude":78.0848524,"name":"Manasa Hospital"},{"latitude":17.3314886,"longitude":78.5721809,"name":"Jeevan Sai Hospitals"},{"latitude":17.5311596,"longitude":78.261268,"name":"MaxCare Multi Speciality Hospital"},{"latitude":17.3279207,"longitude":78.6017188,"name":"Sunrise Hospitals"},{"latitude":17.6198768,"longitude":78.081098,"name":"Sri Sai Ram Multi Speciality Hospital"},{"latitude":17.4506967,"longitude":78.3640308,"name":"Rajitha Hospital"},{"latitude":17.591727,"longitude":78.0837876,"name":"Sri Lakshmi Venkateshwara Orthopeadic, Maternity Hospital"},{"latitude":17.5145906,"longitude":78.8856581,"name":"Navya Nursing Home"},{"latitude":17.5289972,"longitude":78.2646684,"name":"Sai Ganesh Multi Speciality Hospital"},{"latitude":17.5913709,"longitude":78.0837004,"name":"Gayathri Children Nursing Home"},{"latitude":17.5130955,"longitude":78.8833769,"name":"Ajay Nursing Home"},{"latitude":17.5211232,"longitude":78.8951557,"name":"Mamatha Hospital"},{"latitude":17.3707739,"longitude":78.5275,"name":"The Doctors Multi Speciality Hospital"},{"latitude":17.3587987,"longitude":78.5237382,"name":"Medi Sight Eye Care centre"},{"latitude":17.5121158,"longitude":78.8826835,"name":"Area Hospital Bhongir"},{"latitude":17.3922555,"longitude":78.4631672,"name":"Area Hospital, Nampally"},{"latitude":17.3342065,"longitude":78.4698338,"name":"Community Health Centre, Jangammet"},{"latitude":17.8365822,"longitude":78.0727127,"name":"Post Partum Unit (PPU), Jogipet"},{"latitude":17.3135148,"longitude":78.1367505,"name":"Community Health Centre, Chevella"},{"latitude":17.3852587,"longitude":78.4026083,"name":"Area Hospital, Golconda"},{"latitude":17.1970132,"longitude":78.6482209,"name":"Post Partum Unit (PPU), Ibrahimpatnam (Urban)"},{"latitude":17.3411496,"longitude":78.557759,"name":"MEDISYS HOSPITALS (A UNIT OF OXYEN MEDICARE CANCER CARE PVT LTD )"},{"latitude":17.0765076,"longitude":78.2068956,"name":"Post Partum Unit (PPU), Shadnagar"},{"latitude":17.4926185,"longitude":78.3964245,"name":"Sri Aurobindo Nethralaya"},{"latitude":17.4464363,"longitude":78.3786482,"name":"MAXCURE SUYOSHA WOMAN & CHILD HOSPITAL"},{"latitude":17.5066316,"longitude":78.3842419,"name":"CALCIUM HOSPITAL"},{"latitude":17.3452377,"longitude":78.5276489,"name":"MAAX LIFE HOSPITALS"},{"latitude":17.469289,"longitude":78.4862155,"name":"KRUTI HOSPITAL ADVANCED EYE & DENTAL CARE"},{"latitude":17.3253704,"longitude":78.5576025,"name":"DELTA HOSPITALS"},{"latitude":17.4391832,"longitude":78.4425692,"name":"NETHRA EYE INSTITUE"},{"latitude":17.4832707,"longitude":78.5523789,"name":"MAYFLOWER HOSPITAL FOR WOMEN & CHILDREN"},{"latitude":17.4389273,"longitude":78.5060866,"name":"KASTURI MULTISPECIALITY HOSPITAL"},{"latitude":17.3802341,"longitude":78.4297081,"name":"RISE CHILDRENS HOSPITAL (A UNIT OF RISE HOSPITALS PVT. LTD.)"},{"latitude":17.3658656,"longitude":78.5522434,"name":"AVANI LASER EYE HOSPITAL"},{"latitude":17.3739165,"longitude":78.5521227,"name":"SANJEEVANI HOSPITAL"},{"latitude":17.4497269,"longitude":78.3672388,"name":"Kakatiya Hospital"},{"latitude":17.5254356,"longitude":78.3709408,"name":"ARUNODAYA HOSPITAL"},{"latitude":17.4962655,"longitude":78.5959991,"name":"SUNLIFES HOSPITAL"},{"latitude":17.2602591,"longitude":78.3846268,"name":"LIMS HOSPITAL"},{"latitude":17.473687,"longitude":78.571436,"name":"SOLIS EYE CARE HOSPITALS PVT LTD"},{"latitude":17.3270322,"longitude":78.6032966,"name":"Shadow Hospitals"},{"latitude":17.3949495,"longitude":78.4573924,"name":"SRISHTI EYE CENTRE"},{"latitude":17.3360462,"longitude":78.5762921,"name":"LEGEND HOSPITAL"},{"latitude":17.3612589,"longitude":78.4280745,"name":"SAI SURYA HOSPITAL"},{"latitude":17.3985564,"longitude":78.4143068,"name":"Apple Multi Speciality Hospital"},{"latitude":17.4657813,"longitude":78.5389222,"name":"SUDHA HOSPITAL"},{"latitude":17.3623879,"longitude":78.5570419,"name":"Nakshatra Hospitals"},{"latitude":17.3392197,"longitude":78.570819,"name":"EVYA HOSPITALS AND DIABETIC RESERACH CENTER"},{"latitude":17.3932243,"longitude":78.481999,"name":"District Hospital, King Koti"},{"latitude":17.435904,"longitude":78.4499786,"name":"Wellness Hospital"},{"latitude":17.5072656,"longitude":78.4788038,"name":"Refracto Eye Hospital"},{"latitude":17.3448357,"longitude":78.4590373,"name":"FATIMA HOSPITAL"},{"latitude":17.5246107,"longitude":78.482795,"name":"JANAPAREDDY HOSPITAL PVT LTD"},{"latitude":17.4951101,"longitude":78.3706122,"name":"ENT CARE HOSPITAL"},{"latitude":17.4944322,"longitude":78.3415653,"name":"NAIDU EYE HOSPITAL"},{"latitude":17.344755,"longitude":78.5269153,"name":"JEEVAN HOSPITAL"},{"latitude":17.4205712,"longitude":78.4416855,"name":"Times Hospital"},{"latitude":17.5162288,"longitude":78.4472376,"name":"MEDIVISION SUPER SPECIALTY HOSPITAL"},{"latitude":17.494321,"longitude":78.3461505,"name":"HEALIX HOSPITAL"},{"latitude":17.3632928,"longitude":78.4284984,"name":"ZOI HOSPITALS"},{"latitude":17.3203965,"longitude":78.5173801,"name":"SRI RADHIKA MULTI SPECIALITY HOSPITAL"},{"latitude":17.4366563,"longitude":78.4399192,"name":"RAJA HOSPITAL"},{"latitude":17.4246755,"longitude":78.433091,"name":"THE BIRTHPLACE"},{"latitude":17.4055156,"longitude":78.4801617,"name":"MANKINDD HOSPITAL"},{"latitude":17.426232,"longitude":78.5322033,"name":"PADMVATI MEDICAL CENTRE"},{"latitude":17.3696216,"longitude":78.4273417,"name":"IRIS EYE HOSPITAL"},{"latitude":17.5084337,"longitude":78.4614305,"name":"Lakshmi Sailaja Hospiatal"},{"latitude":17.4448396,"longitude":78.3855052,"name":"Oakridge Hospitals"},{"latitude":17.3910435,"longitude":78.4712635,"name":"RAMA EYE HOSPITAL"},{"latitude":17.3893119,"longitude":78.4422313,"name":"Sri Vijaya Hospitals"},{"latitude":17.4921363,"longitude":78.348083,"name":"SRIKARA HOSPITALS"},{"latitude":17.4885611,"longitude":78.3915214,"name":"Amrita ENT Head & Neck Hospital"},{"latitude":17.4185789,"longitude":78.5179152,"name":"B.V.K. REDDY HOSPITAL"},{"latitude":17.3529175,"longitude":78.4180733,"name":"Human Touch Hospital"},{"latitude":17.4620023,"longitude":78.3669068,"name":"REFRACTO EYE HOSPITAL (A GROUP OF CREDIBLE HEALTH CARE PVT LTD )"},{"latitude":17.3619565,"longitude":78.4281778,"name":"GERMANTEN HOSPITALS"},{"latitude":17.3230275,"longitude":78.557235,"name":"SHYAM HOSPITAL"},{"latitude":17.470118,"longitude":78.5086575,"name":"STERLING HOSPITALS PVT LTD"},{"latitude":17.4183281,"longitude":78.5427846,"name":"ANAND EYE INSITUTE"},{"latitude":17.344508,"longitude":78.5484628,"name":"SRI KARA HOSPITAL"},{"latitude":17.4160331,"longitude":78.4473536,"name":"HIGH SIGHT SUPER SPECILAITY EYE HOSPITAL"},{"latitude":17.5451218,"longitude":78.2116807,"name":"DR RAM REDDY MEMORIAL HOSPITAL"},{"latitude":17.45558,"longitude":78.4981728,"name":"NAVJEEVAN HOSPITAL"},{"latitude":17.4288986,"longitude":78.4398817,"name":"SMART VISION EYE SPECIALITIES PRIVATE LIMITED"},{"latitude":17.4691425,"longitude":78.4777518,"name":"KS MULTISPECIALTY HOSPITAL"},{"latitude":17.3985583,"longitude":78.4847268,"name":"RAMESH LASIK & LASER CENTRE"},{"latitude":17.4954081,"longitude":78.3213112,"name":"VIJAYA SREE HOSPITAL"},{"latitude":17.3942641,"longitude":78.4307253,"name":"ORIENT EYE HOSPITAL"},{"latitude":17.3482504,"longitude":78.5520463,"name":"SHINE CHILDREN'S HOSPITAL"},{"latitude":17.4887428,"longitude":78.4005457,"name":"Sri Sri Holistic Hospitals"},{"latitude":17.3690962,"longitude":78.5301608,"name":"Saptagiri Hospital"},{"latitude":17.3753068,"longitude":78.4295377,"name":"SAFE KIDS HOSPITALS PRIVATE LIMITED"},{"latitude":17.3542853,"longitude":78.5470426,"name":"DR RAJASHEKAR REDDY LAPAROSCOPY HOSPITAL"},{"latitude":17.3984982,"longitude":78.536071,"name":"ADRM HOSPITAL"},{"latitude":17.544868,"longitude":78.209044,"name":"S M HOSPITAL"},{"latitude":17.5015719,"longitude":78.5893062,"name":"SHRI ADITHYA HOSPITALS"},{"latitude":17.4893785,"longitude":78.4008153,"name":"Smart Vision Eye Hospitals Pvt Ltd"},{"latitude":17.4058342,"longitude":78.4754223,"name":"SOUTHERN GEM HOSPITAL"},{"latitude":17.4714919,"longitude":78.5676406,"name":"ARC HOSPITAL"},{"latitude":17.5064398,"longitude":78.5160054,"name":"jubilee hospitals"},{"latitude":17.3355392,"longitude":78.5708083,"name":"SHARADA EYE CARE"},{"latitude":17.4635323,"longitude":78.4562123,"name":"SREE ROYAL HOSPITAL"},{"latitude":17.346624,"longitude":78.5211218,"name":"SRI SIDDESHWARA HOSPITAL"},{"latitude":17.4161502,"longitude":78.4338641,"name":"NEPHROPLUS KIDNEY CARE HOSPITALS"},{"latitude":17.3726148,"longitude":78.5010025,"name":"METRO CURE HOSPITAL"},{"latitude":17.4915939,"longitude":78.4096941,"name":"Green Leaf Health Centre"},{"latitude":17.4997723,"longitude":78.477497,"name":"RUSSH SUPER SPECIALITY HOSPITAL"},{"latitude":17.4230318,"longitude":78.5470144,"name":"SHREE POOJA HOSPITAL"},{"latitude":17.4183012,"longitude":78.4582441,"name":"Vascular Care Center"},{"latitude":17.4925596,"longitude":78.3977428,"name":"MCS NEURO HOSPITAL"},{"latitude":17.4947571,"longitude":78.3432363,"name":"HAPPY HOSPITAL"},{"latitude":17.4992274,"longitude":78.3880024,"name":"Landmark Hospital"},{"latitude":17.3198217,"longitude":78.519841,"name":"HIRANYAA MULTI SPECIALITY & CHILDREN'S HOSPITAL"},{"latitude":17.4955297,"longitude":78.4541658,"name":"NETRA EYE AND MULTI SPECIALITY HOSPITAL"},{"latitude":17.4392005,"longitude":78.4803766,"name":"SECUNDERABAD WOMENS HOSPITAL"},{"latitude":17.3673811,"longitude":78.5358068,"name":"SBR Pulse Hospital"},{"latitude":17.4137266,"longitude":78.4244857,"name":"CITI NEURO CENTER"},{"latitude":17.368126,"longitude":78.530836,"name":"Magnas ENT Hospital"},{"latitude":17.3739817,"longitude":78.4985831,"name":"EYE CARE HYDERABAD"},{"latitude":17.3458905,"longitude":78.5292422,"name":"SREE SREYAS HOSPITAL"},{"latitude":17.4566496,"longitude":78.4786342,"name":"SAI GURU RAGHAVENDRA ORTHOPEADIC & MULTISPECIALITY"},{"latitude":17.4194759,"longitude":78.3715081,"name":"PACIFIC CLINICS (A Unit of Pacific Hospitals Pvt Ltd.)"},{"latitude":17.4070512,"longitude":78.4412871,"name":"STORK HOME FERNANDEZ HOSPITAL"},{"latitude":17.4910196,"longitude":78.3967075,"name":"Baabaji Nethralaya Eye Hospital"},{"latitude":17.496072,"longitude":78.3452386,"name":"MOTHERHOOD FERTILITY CENTRE"},{"latitude":17.3960244,"longitude":78.559704,"name":"SUMITHRA HOSPITALS"},{"latitude":17.490815,"longitude":78.396851,"name":"MedWise Hospital (A unit of Chirayu Avigna Healthcare)"},{"latitude":17.5171414,"longitude":78.4449886,"name":"SAI SIDDHARTHA HOSPITAL"},{"latitude":17.2504464,"longitude":78.8975909,"name":"Community Health Centre Chouttuppal"},{"latitude":17.5301584,"longitude":78.2667411,"name":"AREA HOSPITAL PATANCHERU"},{"latitude":17.5162813,"longitude":78.4473006,"name":"Sai Bhavani Super Speciality Hospital"},{"latitude":17.3722481,"longitude":78.5008469,"name":"Apollo Emergency Centre"},{"latitude":17.3918869,"longitude":78.4406219,"name":"Amrutha Hospital For Health and Fitness"},{"latitude":17.4401185,"longitude":78.4236932,"name":"Pavithra Nursing Home"},{"latitude":17.4722792,"longitude":78.5170314,"name":"Military Hospital"},{"latitude":17.3728426,"longitude":78.4740262,"name":"Osmania General Hospital's Blood Bank"},{"latitude":17.4562216,"longitude":78.4256515,"name":"Neelima Hospital"},{"latitude":17.3568423,"longitude":78.4738019,"name":"Unknown"},{"latitude":17.43034,"longitude":78.4370834,"name":"Nikhil Hospital"},{"latitude":17.3349862,"longitude":78.5706618,"name":"Vijaya Nursing Home - Vanasthalipuram"},{"latitude":17.4711388,"longitude":78.5078877,"name":"Vamshi Hospital - Trimulgherry"},{"latitude":17.3455135,"longitude":78.5081814,"name":"Dr.Agarwal's Eye Hospital - Santhosh Nagar"},{"latitude":17.4963994,"longitude":78.4523928,"name":"Happy Children Hospital - Chintal"},{"latitude":17.3316717,"longitude":78.5336658,"name":"Vijaya Hospital - Ranga Reddy"},{"latitude":17.4953327,"longitude":78.3461183,"name":"Vijaya Hospital"},{"latitude":17.3944702,"longitude":78.4889225,"name":"Sri Venkateshwara Nursing Home - Narayanguda"},{"latitude":17.3929299,"longitude":78.4797553,"name":"Kamineni Fertility Centre"},{"latitude":17.483593,"longitude":78.5580665,"name":"Asha Hospital"},{"latitude":17.4300284,"longitude":78.3742265,"name":"Motherhood Clinic"},{"latitude":17.5051697,"longitude":78.5071749,"name":"Life Spring Maternity Hospital"},{"latitude":17.3678054,"longitude":78.5496034,"name":"Susheela Hospital - R.K Puram"},{"latitude":17.4074076,"longitude":78.4428254,"name":"Omni Hospital - Banjara Hills"},{"latitude":17.3690898,"longitude":78.5224923,"name":"Dr.Agarwal's Eye Hospital - Dilsukhnagar"},{"latitude":17.3369525,"longitude":78.5507843,"name":"S.S Multi Speciality Hospital"},{"latitude":17.3893491,"longitude":78.4734696,"name":"Jayanti Maternity and Nursing Home"},{"latitude":17.4186403,"longitude":78.5420912,"name":"Whitus Hospital (A Unit Of Sri Shikhara Hospitals India Pvt Ltd)"},{"latitude":17.3696696,"longitude":78.5142714,"name":"SAFE CHLIDRENS HOSPITAL"},{"latitude":17.4189151,"longitude":78.5654264,"name":"Satya Multi Speciality Hospital"},{"latitude":17.385132,"longitude":78.482281,"name":"Royal Ear, Nose and Throat (ENT) Hospital"},{"latitude":17.3774807,"longitude":78.4996403,"name":"Dr.syed Ajaz hussain & Dr.syed mumtaz hussain"},{"latitude":17.3429186,"longitude":78.541484,"name":"Apex Hospital"},{"latitude":17.442029,"longitude":78.440725,"name":"Shiva Homoeo Stores and clinic"},{"latitude":17.4279239,"longitude":78.3240814,"name":"Srija Hospital"},{"latitude":17.488394,"longitude":78.39696,"name":"Madhusudhan Hospital"},{"latitude":17.5198207,"longitude":78.4427883,"name":"Lions Club Of Hyderabad Multi Speciality Hospital"},{"latitude":17.4898215,"longitude":78.6018077,"name":"Pooja Hospital"},{"latitude":17.468492,"longitude":78.4576658,"name":"Vijaylaxmi Maternity Hospital"},{"latitude":17.539151,"longitude":78.433749,"name":"Health Care General Hospital"},{"latitude":17.372487,"longitude":78.522991,"name":"Amma Hospitals"},{"latitude":17.360911,"longitude":78.389319,"name":"Cocoon Hospital"},{"latitude":17.4932248,"longitude":78.6045666,"name":"Keerthi Hospital"},{"latitude":17.354892,"longitude":78.532407,"name":"Saroornagar Hospital"},{"latitude":17.367644,"longitude":78.529654,"name":"Srihitha Hospital"},{"latitude":17.4003659,"longitude":78.3894309,"name":"Prolife Hospital"},{"latitude":17.493471,"longitude":78.604817,"name":"Lifeline Hospital"},{"latitude":17.4012253,"longitude":78.4124091,"name":"Hayatt Hospital"},{"latitude":17.4329564,"longitude":78.4461388,"name":"Gutta Eye Clinic"},{"latitude":17.0699205,"longitude":78.2050841,"name":"Vijaya Jyothi Hospital"},{"latitude":17.1867674,"longitude":78.3281776,"name":"JIMS Hospital"},{"latitude":17.493087,"longitude":78.4096964,"name":"Apple Diagnostic & Medical Centre, Kukatpally"},{"latitude":17.417667,"longitude":78.632292,"name":"Vajra Hospitals"},{"latitude":17.4897271,"longitude":78.6017722,"name":"Janani Hospital for Women and Children"},{"latitude":17.5101637,"longitude":78.2998532,"name":"RM Hospital"},{"latitude":17.492517,"longitude":78.451227,"name":"Alavi Hospital"},{"latitude":17.4694418,"longitude":78.4256774,"name":"Chaitanya Hospital"},{"latitude":17.4277736,"longitude":78.4573355,"name":"ZOI Hospital"},{"latitude":17.321219,"longitude":78.568712,"name":"Nadipathy Hospital"},{"latitude":17.4889369,"longitude":78.4006671,"name":"Trichos Skin Care"},{"latitude":17.4958036,"longitude":78.4524391,"name":"Harsha Dental Dantam Network Dental Hospitals"},{"latitude":17.5314158,"longitude":78.4875009,"name":"Srikara Hospital"},{"latitude":17.4092386,"longitude":78.4007023,"name":"JBI Hospital"},{"latitude":17.4933988,"longitude":78.3979717,"name":"J.K. Hospital"},{"latitude":17.322434,"longitude":78.4801,"name":"Bakoban Hospital"},{"latitude":17.4452339,"longitude":78.4617537,"name":"Sri Sai Rama Clinic"},{"latitude":17.3554702,"longitude":78.4636083,"name":"Medicare Hospital"},{"latitude":17.3222518,"longitude":78.4307242,"name":"Sri Lakshmi Hospital"},{"latitude":17.517046,"longitude":78.480475,"name":"Suraksha Women And Children Hospital"},{"latitude":17.3223098,"longitude":78.4305647,"name":"Sujatha Hospital"},{"latitude":17.509869,"longitude":78.299367,"name":"Eureka Hospital"},{"latitude":17.473479,"longitude":78.421673,"name":"Vasundhara Hospital"},{"latitude":17.3921804,"longitude":78.4264492,"name":"Salamah Hospital"},{"latitude":17.4691677,"longitude":78.4275318,"name":"Aradhya Multi Speciality Hospital"},{"latitude":17.4956577,"longitude":78.4532466,"name":"Raman Hospital"},{"latitude":17.443615,"longitude":78.434617,"name":"Skorts Multi Speciality Clinics"},{"latitude":17.3957352,"longitude":78.4175241,"name":"IBM Hospital"},{"latitude":17.3058624,"longitude":78.4683878,"name":"Al Madina General Hospital"},{"latitude":17.4795083,"longitude":78.3202454,"name":"Shreya Hospitals"},{"latitude":17.4028303,"longitude":78.5741446,"name":"Lakshmi Priya Nursing"},{"latitude":17.4003589,"longitude":78.382573,"name":"Shobha Hospital"},{"latitude":17.4023438,"longitude":78.5670163,"name":"SKIMS Hospital"},{"latitude":17.4642455,"longitude":78.4571122,"name":"BBR Super Speciality Hospital"},{"latitude":17.324086,"longitude":78.556886,"name":"Sri Nitya Hospital"},{"latitude":17.512371,"longitude":78.557713,"name":"Sri Balaji Nagar Nursing Home"},{"latitude":17.513357,"longitude":78.556607,"name":"Aditya Hospital"},{"latitude":17.5160299,"longitude":78.3819324,"name":"Sunray Hospital"},{"latitude":17.2743514,"longitude":78.5953443,"name":"St Joseph's Hospital"},{"latitude":17.3293045,"longitude":78.5645447,"name":"Sakhi Hospital"},{"latitude":17.4934982,"longitude":78.3209211,"name":"Archana Multi Speciality Hospital"},{"latitude":17.3659362,"longitude":78.5255259,"name":"SAI RAM MULTI SPECIALITY HOSPITAL (ARK HEALTH CARE PVT LTD)"},{"latitude":17.4942384,"longitude":78.3995332,"name":"SRU Facture & Plastic Surgery"},{"latitude":17.8461855,"longitude":78.4779456,"name":"Toopran Nursing Home"},{"latitude":17.843811,"longitude":78.4764867,"name":"Srinivas Hospital"},{"latitude":17.8410425,"longitude":78.4761949,"name":"Geetha Nursing Home"},{"latitude":17.8940885,"longitude":78.7977285,"name":"Aarogya General Hospital"},{"latitude":17.84212,"longitude":78.47811,"name":"Sri Sai Hospitals"},{"latitude":17.7412226,"longitude":78.2824676,"name":"Siri Nursing Home"},{"latitude":17.8380887,"longitude":78.477224,"name":"ragavendra hospital"},{"latitude":17.84188,"longitude":78.47932,"name":"MedSurge Hospital"},{"latitude":17.9716573,"longitude":78.4610282,"name":"Ganesh hospital"},{"latitude":17.8139104,"longitude":78.4181295,"name":"ESI Hospital,Donthi"},{"latitude":17.73873,"longitude":78.28269,"name":"Dr. K.Anji Reddy Hospital"},{"latitude":17.84103,"longitude":78.47841,"name":"Devi Hospital,Tupran"},{"latitude":17.7314187,"longitude":78.284518,"name":"Dangoria Hospital Charitable Trust"},{"latitude":17.7424421,"longitude":78.2825926,"name":"Annapurna hospital"},{"latitude":17.73973,"longitude":78.28284,"name":"Amrutha Hospital,Narasapur"},{"latitude":17.74552,"longitude":78.2798,"name":"Amma nursing home (childrens &general)"},{"latitude":17.83808,"longitude":78.47676,"name":"Amma Hospital,Tupran"},{"latitude":17.63458,"longitude":78.90559,"name":"Veterinary Hospital - Mallapur"},{"latitude":17.5855733,"longitude":78.9459243,"name":"Sri Thirumalamma Hospital"},{"latitude":17.5439551,"longitude":78.8006954,"name":"Sri Rajarajeshwara Clinic"},{"latitude":17.4692056,"longitude":78.7919578,"name":"SLNS Nature Cure Hospital"},{"latitude":17.5187648,"longitude":78.8871294,"name":"Ramchandar Hospital"},{"latitude":17.52073,"longitude":78.89068,"name":"Radha Krishna Hospital"},{"latitude":17.2556111,"longitude":78.8977291,"name":"Prashanthi Hospital"},{"latitude":17.5813616,"longitude":78.947332,"name":"Prashanth Nursing Home"},{"latitude":17.5124956,"longitude":78.8822186,"name":"Nidhi Childerns Hospital"},{"latitude":17.6312129,"longitude":78.9103713,"name":"Maruthi Clinic Hospital"},{"latitude":17.5111,"longitude":78.88163,"name":"Manasa Hospital"},{"latitude":17.52126,"longitude":78.89399,"name":"Kasthuri Hospital"},{"latitude":17.5850556,"longitude":78.9456114,"name":"Dr.Racha Yadagiri Hospital"},{"latitude":17.5127511,"longitude":78.8829916,"name":"Ashok Multispeciality Hospital"},{"latitude":17.51518,"longitude":78.88559,"name":"Aahanaa Hospitals"},{"latitude":17.3149068,"longitude":78.1386236,"name":"Vijay Hospital"},{"latitude":17.31481,"longitude":78.13877,"name":"Srinivasa Hospital"},{"latitude":17.306705,"longitude":78.1475552,"name":"Dr. Patnam Mahender Reddy General Hospital"},{"latitude":17.5958091,"longitude":78.0821617,"name":"Sunrise Hospital,Pothireddypally"},{"latitude":17.6091414,"longitude":78.0832908,"name":"Sri Sai Ganesh Multi Speciality Hospital"},{"latitude":17.6072706,"longitude":78.0830731,"name":"Sri Laxmi Balaji ENT & GENERAL HOSPITAL"},{"latitude":17.60852,"longitude":78.08257,"name":"Sri Krishna Childrens Hospital"},{"latitude":17.6000488,"longitude":78.0778679,"name":"Shishuraksha hospital"},{"latitude":17.58931,"longitude":78.0835,"name":"Sangeetha Hospital"},{"latitude":17.6122744,"longitude":78.0822841,"name":"Neehar Hospital"},{"latitude":17.5896784,"longitude":78.0754103,"name":"Manjeera Hospital"},{"latitude":17.606815,"longitude":78.0837331,"name":"City Super Speciality Hospital"},{"latitude":17.6000097,"longitude":78.0779039,"name":"apex super speciality hospital"},{"latitude":17.4944955,"longitude":78.3296853,"name":"Gangaram Community Hall Health Sub Center"},{"latitude":17.3732371,"longitude":78.446451,"name":"Community Health Centre, Panipura"},{"latitude":17.4509475,"longitude":78.4235564,"name":"SHREYA HOSPITAL"},{"latitude":17.4546149,"longitude":78.4200095,"name":"DR NAVEEN REDDYS GENERAL HOSPITAL"},{"latitude":17.3953666,"longitude":78.4544152,"name":"Medicure Diagnostic and Research Center(Alekhya Scanning Center)"},{"latitude":17.5852809,"longitude":78.9504632,"name":"PHC Yadagirigutta"},{"latitude":17.5346488,"longitude":78.939095,"name":"PVC Raigiri"},{"latitude":17.5151305,"longitude":78.8869853,"name":"Childrens Hospital"},{"latitude":17.5092113,"longitude":78.8857404,"name":"Dr.Balaiah Hospital"},{"latitude":17.5126436,"longitude":78.8824142,"name":"Sri Swathi Hospital"},{"latitude":17.623849,"longitude":78.086602,"name":"Sri Hari Hospital"},{"latitude":17.6227633,"longitude":78.0865991,"name":"Selection Medical & Hospital"},{"latitude":17.6127314,"longitude":78.0747422,"name":"Rukmini Clinic"},{"latitude":17.518429,"longitude":78.888793,"name":"Rajaram's Kasturi Ayurvedic Hospital"},{"latitude":17.516416,"longitude":78.88263,"name":"R K Hospitals"},{"latitude":17.6193804,"longitude":78.082298,"name":"Psychriatist Hospital"},{"latitude":17.5148859,"longitude":78.8855329,"name":"Prince Children Hospital"},{"latitude":17.5271973,"longitude":78.8966156,"name":"Manjunath Hospital"},{"latitude":17.5140764,"longitude":78.8842382,"name":"Dr. Haroon Khan'S Multi Speciality Hospital"},{"latitude":17.5110769,"longitude":78.8815685,"name":"Dr Sumanth Laser & Eye Hospital"},{"latitude":17.519071,"longitude":78.89127,"name":"Dr Mohan's Smitha Children Hospital"},{"latitude":17.5169133,"longitude":78.8874487,"name":"Dayasai Eye Hospital"},{"latitude":17.6256252,"longitude":78.0828337,"name":"Ayyappa Eye Care"},{"latitude":17.4659669,"longitude":78.3678073,"name":"KIMS Cruddle"},{"latitude":17.5028997,"longitude":78.3887517,"name":"srisri holistic"},{"latitude":17.5029831,"longitude":78.3887796,"name":"Unknown"},{"latitude":17.4234633,"longitude":78.5478069,"name":"Durga prasad"},{"latitude":17.3745451,"longitude":78.5455972,"name":"Unknown"},{"latitude":17.4787553,"longitude":78.4816433,"name":"SHEKAR HOSPITAL"},{"latitude":17.4320343,"longitude":78.5528481,"name":"ESI Hospital"},{"latitude":17.4594547,"longitude":78.3659801,"name":"Apollo"},{"latitude":17.4948228,"longitude":78.3401789,"name":"Titan eye plus"},{"latitude":17.5035172,"longitude":78.4156543,"name":"Mythri Clinic"},{"latitude":17.4406949,"longitude":78.3943588,"name":"Srinivasa Hospital"},{"latitude":17.4413783,"longitude":78.3880897,"name":"Samanta Homeopathy"},{"latitude":17.3290827,"longitude":78.4276336,"name":"Unknown"},{"latitude":17.4366221,"longitude":78.4457432,"name":"Shresta hospital"},{"latitude":17.5133146,"longitude":78.3022088,"name":"Tirumala Hospital"},{"latitude":17.4947296,"longitude":78.341244,"name":"Ankura Children hospital"},{"latitude":17.3263516,"longitude":78.2750511,"name":"Yousuf Memorial Hospital"},{"latitude":17.3685916,"longitude":78.5187388,"name":"konark diagonistic center"},{"latitude":17.4103807,"longitude":78.4640961,"name":"Unknown"},{"latitude":17.5422595,"longitude":78.474491,"name":"Unknown"},{"latitude":17.493937,"longitude":78.351628,"name":"Dr.agarwals"},{"latitude":17.394532,"longitude":78.4352772,"name":"Dr. Moinuddin clinic"},{"latitude":17.3364058,"longitude":78.569899,"name":"Vijaya diagnostics"},{"latitude":17.4866535,"longitude":78.3912724,"name":"saidatha homeo stores and clinic"},{"latitude":17.397386,"longitude":78.4294337,"name":"Govt Hospital"},{"latitude":17.51644,"longitude":78.445742,"name":"Bhaskara Hospital"},{"latitude":17.4998816,"longitude":78.3574735,"name":"Tirumala Nursing home"},{"latitude":17.3591366,"longitude":78.4945773,"name":"FAITH HOSIPTAL"},{"latitude":17.4044163,"longitude":78.4838359,"name":"Raaj Hospital"},{"latitude":17.4492625,"longitude":78.4473693,"name":"Bharati Nursing Home"},{"latitude":17.493969,"longitude":78.513036,"name":"Sri sanjeevini"},{"latitude":17.2996609,"longitude":78.5854994,"name":"Unknown"},{"latitude":17.4591866,"longitude":78.5007832,"name":"Unknown"},{"latitude":17.4376777,"longitude":78.5220997,"name":"Unknown"},{"latitude":17.3088672,"longitude":78.4942526,"name":"Unknown"},{"latitude":17.3713436,"longitude":78.5018929,"name":"Osmania clinic"},{"latitude":17.4402772,"longitude":78.4975865,"name":"Unknown"},{"latitude":17.5149211,"longitude":78.3975763,"name":"Holistic Hospital"},{"latitude":17.518463,"longitude":78.3968731,"name":"People's Hospital"},{"latitude":17.5361942,"longitude":78.4362911,"name":"People's health care"},{"latitude":17.5070065,"longitude":78.395168,"name":"VITAL'S Hospital"},{"latitude":17.3914914,"longitude":78.5113902,"name":"yashoda"},{"latitude":17.7469713,"longitude":78.6305193,"name":"Government Hospital, Mulug"},{"latitude":17.7187692,"longitude":78.6121693,"name":"RVM Institute Of Medical Sciences And Research Center"},{"latitude":17.5838801,"longitude":78.2653141,"name":"TRR General Hospital"},{"latitude":17.6071411,"longitude":78.083113,"name":"Sahasra Hospital"},{"latitude":17.498279,"longitude":78.3146178,"name":"Medicover Hospital ,Chandanagar"},{"latitude":17.4943209,"longitude":78.3168615,"name":"Preeti Urology & Kidney Hospital ,BHEL, Lingampally"},{"latitude":17.3988443,"longitude":78.3652937,"name":"AMVI Hospital"},{"latitude":17.3987165,"longitude":78.3653,"name":"Dr Shaivalini - Gynecologist"},{"latitude":17.1366888,"longitude":78.5207469,"name":"Government Hospital, Lemoor"},{"latitude":17.3614317,"longitude":78.5539533,"name":"Kamineni Hospital"},{"latitude":17.3347442,"longitude":78.5530454,"name":"Aware Global Hospitals"},{"latitude":17.4940216,"longitude":78.3227858,"name":"Archana Hospital"},{"latitude":17.4446234,"longitude":78.384659,"name":"Hegde Hospital"},{"latitude":17.4554623,"longitude":78.3720097,"name":"Rainbow Children Hospital"},{"latitude":17.3641376,"longitude":78.3947106,"name":"DIVA Multispeciality Clinics"},{"latitude":17.4940229,"longitude":78.3470745,"name":"Pace Hospitals ,Madinaguda"},{"latitude":17.1880949,"longitude":78.6490162,"name":"Suraksha Multispeciality Hospital"},{"latitude":17.4121129,"longitude":78.4229918,"name":"Uchvaas Hospital"},{"latitude":17.3137197,"longitude":78.560974,"name":"Bhrungi Hospitals"},{"latitude":17.3138528,"longitude":78.5084604,"name":"Chavan Hospitals"},{"latitude":17.4644176,"longitude":78.3682452,"name":"Health Valley Hospital"},{"latitude":17.3401158,"longitude":78.52185,"name":"Viswas Hospital"},{"latitude":17.393868,"longitude":78.5226426,"name":"Tricolour Hospital"},{"latitude":17.3902616,"longitude":78.495225,"name":"Prathima Hospitals"},{"latitude":17.3845228,"longitude":78.4820151,"name":"Government ENT Hospital ,Koti"},{"latitude":17.4753103,"longitude":78.4857756,"name":"SKS Hospital"},{"latitude":17.4416653,"longitude":78.4860599,"name":"Navodaya Hospital"},{"latitude":17.4012471,"longitude":78.5636616,"name":"Tapadia Diagnostics Centre"},{"latitude":17.4109164,"longitude":78.432519,"name":"Brinnova rehabilation centre"},{"latitude":17.4041507,"longitude":78.479872,"name":"Vijaya Diagnostic Centre, Himayatnagar"},{"latitude":17.4419494,"longitude":78.4899303,"name":"Oasis Fertility Centre"},{"latitude":17.4444622,"longitude":78.5048595,"name":"Basant Sahney Hospital"},{"latitude":17.4263881,"longitude":78.4204343,"name":"Oasis Fertility Centre"},{"latitude":17.3632288,"longitude":78.5449317,"name":"Vasavi Hospital"},{"latitude":17.438752,"longitude":78.4505019,"name":"Partha Dental Skin Hair Clinic"},{"latitude":17.4102165,"longitude":78.461228,"name":"S L Diagnostic Center"},{"latitude":17.4507517,"longitude":78.3631825,"name":"Praba's VCare Health Clinic (P) Ltd, Gachibowli"},{"latitude":17.3535608,"longitude":78.4745425,"name":"Government Hospital, Suraj Bhan"},{"latitude":17.3730487,"longitude":78.4838444,"name":"Mina multi speciality Hospital"},{"latitude":17.4535446,"longitude":78.4206489,"name":"Dr Naveen Reddy Hospital"},{"latitude":17.3867056,"longitude":78.4950359,"name":"Railway Health Unit, Kachiguda"},{"latitude":17.4401505,"longitude":78.4936257,"name":"Madhava Nursing Home"},{"latitude":17.4272659,"longitude":78.4143269,"name":"MAA E.N.T. Hospitals"},{"latitude":17.5385472,"longitude":78.3574721,"name":"Mamata Academy of Medical Sciences Hospital"},{"latitude":17.4853838,"longitude":78.4109567,"name":"OMNI Hospitals"},{"latitude":17.4557195,"longitude":78.4992805,"name":"Rainbow Children's Medicare Pvt Ltd"},{"latitude":17.4855041,"longitude":78.3908053,"name":"Remedy Hospitals"},{"latitude":17.4384053,"longitude":78.5551261,"name":"Prasad Hospitals ,Nacharam"},{"latitude":17.48884,"longitude":78.4083858,"name":"Sivananda Rehabilitation Home"},{"latitude":17.4908668,"longitude":78.3970173,"name":"Cosmo Derma"},{"latitude":17.4869463,"longitude":78.3994145,"name":"Padmaja Hospital"},{"latitude":17.444713,"longitude":78.4691593,"name":"Pathcare Labs Pvt Ltd"},{"latitude":17.4058368,"longitude":78.5875386,"name":"Save Hospitals"},{"latitude":17.5057005,"longitude":78.4670243,"name":"Srujana Hospitals"},{"latitude":17.3582035,"longitude":78.5444422,"name":"Paramitha Children's Hospital"},{"latitude":17.4957164,"longitude":78.4525108,"name":"Tesla Diagnostics"},{"latitude":17.4919994,"longitude":78.3972386,"name":"K K Reddy Hospital"},{"latitude":17.4928129,"longitude":78.397999,"name":"Goutam Neuro Care"},{"latitude":17.4881237,"longitude":78.3949721,"name":"Dr. Rao's ENT Super Speciality International Hospital"},{"latitude":17.3931001,"longitude":78.5575394,"name":"Centre for DNA Fingerprinting and Diagnostics"},{"latitude":17.5380971,"longitude":78.3638048,"name":"Sri Swastik Multispeciality Hospital"},{"latitude":17.4867461,"longitude":78.5540117,"name":"Nandini Hospital"},{"latitude":17.4951229,"longitude":78.3574077,"name":"Udbhava Hospital ,Miyapur"},{"latitude":17.4365846,"longitude":78.664345,"name":"Shri Wazra Multi Speciality Hospitals"},{"latitude":17.4897846,"longitude":78.601926,"name":"Sri Dharani Multispeciality Hospital"},{"latitude":17.5079988,"longitude":78.5022081,"name":"Excel Hospitals"},{"latitude":17.4567775,"longitude":78.6572197,"name":"Shraddha Hospital"},{"latitude":17.4847174,"longitude":78.4129804,"name":"Ananya Hospital"},{"latitude":17.4829023,"longitude":78.4134217,"name":"People's Hospital"},{"latitude":17.5281685,"longitude":78.3625871,"name":"SLG Hospitals"},{"latitude":17.4009873,"longitude":78.5794678,"name":"Shree Healthcare Multi Specialty Hospital"},{"latitude":17.4274056,"longitude":78.4321671,"name":"Ferticare IVF Asist"},{"latitude":17.4452155,"longitude":78.4324096,"name":"DTC TB Unit Erragadda"},{"latitude":17.4472339,"longitude":78.4326449,"name":"Dr.Vivek's Multispeciality Dental care"},{"latitude":17.4475965,"longitude":78.5089418,"name":"Shakti Ayurvedic Clinic"},{"latitude":17.0596827,"longitude":78.2038786,"name":"Viva Hospital"},{"latitude":17.0596734,"longitude":78.2040157,"name":"Viva Hospital"},{"latitude":17.0592837,"longitude":78.2037696,"name":"VIVA Hospital"},{"latitude":17.4801489,"longitude":78.5121788,"name":"Unknown"},{"latitude":17.4527375,"longitude":78.5648775,"name":"Rahul Meidials"},{"latitude":17.4527443,"longitude":78.5647251,"name":"Nandini"},{"latitude":17.4632492,"longitude":78.5615635,"name":"vijaya diagonistics"},{"latitude":17.4622327,"longitude":78.5587486,"name":"Government uphc"},{"latitude":17.4274216,"longitude":78.5517653,"name":"Unknown"},{"latitude":17.3532901,"longitude":78.5589741,"name":"kamineni"},{"latitude":17.469786,"longitude":78.1652439,"name":"BDL Township Hospital"},{"latitude":17.4940583,"longitude":78.3212245,"name":"Chenna reddy hospital"},{"latitude":17.2975367,"longitude":78.4460149,"name":"Unknown"},{"latitude":17.438001,"longitude":78.4563763,"name":"Unknown"},{"latitude":17.4366107,"longitude":78.6038388,"name":"Rikshith medical"},{"latitude":17.5026194,"longitude":78.4207649,"name":"balaji hospital"},{"latitude":17.3646406,"longitude":78.4286144,"name":"PRAANAA PAIN CLINIC"},{"latitude":17.4113015,"longitude":78.5859926,"name":"Vijaya Diagnostics Center"},{"latitude":17.4287042,"longitude":78.5182344,"name":"Unknown"},{"latitude":17.5020423,"longitude":78.3889444,"name":"sri sri holistic hospitals"},{"latitude":17.4434504,"longitude":78.5461318,"name":"Railway hospital"},{"latitude":17.3759689,"longitude":78.4973599,"name":"\u0622\u0626\u06cc \u06a9\u06cc\u0626\u0631 \u062d\u06cc\u062f\u0631\u0622\u0628\u0627\u062f (\u0633\u067e\u0631 \u0627\u0633\u067e\u06cc\u0634\u0644\u0679\u06cc \u0622\u0626\u06cc \u06c1\u0633\u067e\u062a\u0627\u0644)"},{"latitude":17.3836203,"longitude":78.4292848,"name":"Mythri Hospital"},{"latitude":17.3932979,"longitude":78.4261156,"name":"Vinayaka Nethralaya Eye Hospital"},{"latitude":17.4605484,"longitude":78.3547514,"name":"Unknown"},{"latitude":17.4321107,"longitude":78.5529242,"name":"ESI hospital"},{"latitude":17.968177,"longitude":78.4620522,"name":"medical store"},{"latitude":17.4628046,"longitude":78.5619053,"name":"Unknown"},{"latitude":17.4359366,"longitude":78.5426952,"name":"hs"},{"latitude":17.3607193,"longitude":78.4408817,"name":"Unknown"},{"latitude":17.4146159,"longitude":78.4539247,"name":"Avinash child hospital"},{"latitude":17.4913757,"longitude":78.5991521,"name":"Trinity Hospital"},{"latitude":17.362556,"longitude":78.5224832,"name":"Unknown"},{"latitude":17.400154,"longitude":78.5405264,"name":"Unknown"},{"latitude":17.7754006,"longitude":78.2956057,"name":"Government  Hospital"},{"latitude":17.4410992,"longitude":78.5720791,"name":"Sri rama clinic"},{"latitude":17.7729191,"longitude":78.2941271,"name":"kamala hospital"},{"latitude":17.4388301,"longitude":78.54187,"name":"Community Health Centre, Lalapet"},{"latitude":17.3923182,"longitude":78.4624848,"name":"Unknown"},{"latitude":17.9283517,"longitude":78.9683788,"name":"Community Health Centre, Cherial"},{"latitude":17.3921953,"longitude":78.5178213,"name":"Community Health Centre, AMBERPET"},{"latitude":17.7397109,"longitude":78.2840399,"name":"Commuity Health Centre, Narasapur"},{"latitude":17.3314694,"longitude":78.5652052,"name":"Area Hospital"},{"latitude":17.4265349,"longitude":78.5192979,"name":"Community Health Centre, Seethaphalmandi"},{"latitude":17.4137227,"longitude":78.4911923,"name":"Sarojini Devi EYE Hospital"},{"latitude":17.4504805,"longitude":78.5321201,"name":"AREA HOSPITAL MALKAJGIRI"},{"latitude":17.3979133,"longitude":78.5310178,"name":"DK Govt Homoeopathic Hospital, Ramanthapur, Hyd"},{"latitude":17.4448127,"longitude":78.4219109,"name":"CHC KHAIRATABAD"},{"latitude":17.4485486,"longitude":78.4248854,"name":"Community Health Centre, AMEERPET"},{"latitude":17.587654,"longitude":78.0836293,"name":"Sai charita hospital"},{"latitude":17.4317717,"longitude":78.4455728,"name":"Shishira hospitals"},{"latitude":17.4314966,"longitude":78.4473474,"name":"Image Hospital"},{"latitude":17.4302495,"longitude":78.4487075,"name":"Medkid children's hospital"},{"latitude":17.3725623,"longitude":78.4738438,"name":"Osmania Governement General Hospital"},{"latitude":17.4566753,"longitude":78.4115501,"name":"Maholla Clinic"},{"latitude":17.4564341,"longitude":78.4103806,"name":"Mohammadi Clinic"},{"latitude":17.3934464,"longitude":78.5365962,"name":"Susheela Hospital"},{"latitude":17.337349,"longitude":78.4680874,"name":"Unknown"},{"latitude":17.5458731,"longitude":78.3359459,"name":"Unknown"},{"latitude":17.3147451,"longitude":78.6007159,"name":"appolo medical shop1"},{"latitude":17.4915484,"longitude":78.3910656,"name":"JNTU Hospital"},{"latitude":17.4364246,"longitude":78.3675806,"name":"Omega Hospitals"},{"latitude":17.4771569,"longitude":78.4204028,"name":"Amar Hospitals"},{"latitude":17.4622687,"longitude":78.384176,"name":"Yashoda Hospitals"},{"latitude":17.4538625,"longitude":78.421752,"name":"Sunridge Multi-Speciality Hospital"},{"latitude":17.3841667,"longitude":78.4562354,"name":"D.K.GOVT. HOMOEO HOSPITAL"},{"latitude":17.5952281,"longitude":78.0673993,"name":"Dua Hospital"},{"latitude":17.8451371,"longitude":78.6818235,"name":"Community Health Centre, GAJWEL"},{"latitude":17.4502373,"longitude":78.6830091,"name":"Community Health Centre, Ghatkesar"},{"latitude":17.6302478,"longitude":78.4842384,"name":"Community Health Centre, Ghatkesar"},{"latitude":17.6397203,"longitude":78.4739716,"name":"Community Health Center Medchal"},{"latitude":17.4487092,"longitude":78.4338427,"name":"Government Ayurvedic Hospital, Erragadda, Hyderabad"},{"latitude":17.3203486,"longitude":78.4018045,"name":"Community Health Centre Rajendranagar"},{"latitude":17.3144808,"longitude":78.4831721,"name":"Community Health Centre, BARKAS"},{"latitude":17.3986812,"longitude":78.4610376,"name":"Niloufer Hospital"},{"latitude":17.5183698,"longitude":78.8859639,"name":"Standalone Homoeo Hospital"},{"latitude":17.3975018,"longitude":78.4293977,"name":"Area Hospital, Golconda"},{"latitude":17.8425364,"longitude":78.4685848,"name":"Community Health Centre, Tupran"},{"latitude":17.4454284,"longitude":78.434959,"name":"Government Chest Hospital"},{"latitude":17.1356261,"longitude":78.4352341,"name":"Community Health Centre Maheshwaram"},{"latitude":17.3684615,"longitude":78.4674183,"name":"MG Govt Maternity Hospital, Petla Burz"},{"latitude":17.392244,"longitude":78.4601927,"name":"MNJ Institute of Oncology and Regional Cancer Center"},{"latitude":17.4506724,"longitude":78.4361121,"name":"Institute of Mental Health"},{"latitude":17.1961687,"longitude":78.6481891,"name":"Community Health Centre, Ibrahimpatnam"},{"latitude":17.5062174,"longitude":78.8185994,"name":"Unknown"},{"latitude":17.3951477,"longitude":78.4556625,"name":"MK Dentistry"},{"latitude":17.3667392,"longitude":78.5811285,"name":"Swasthya Dental Clinic"},{"latitude":17.8429982,"longitude":78.6846323,"name":"Government District Hospital Gajwel"},{"latitude":17.8443712,"longitude":78.6841501,"name":"Children Hospital Gajwel"},{"latitude":17.4754498,"longitude":78.5681603,"name":"SK + Diagnostics"},{"latitude":17.4754498,"longitude":78.5681603,"name":"SK + Diagnostics"},{"latitude":17.3535776,"longitude":78.4745244,"name":"Unknown"}]}